$GPGGA,173845.878,5109.4000,N,00641.6735,E,1,04,14.5,123.1,M,47.6,M,0.0,0000*44
$GPVTG,,T,,M,0.000000,N,0.000000,K*4E
$GPGGA,173846.878,5109.4000,N,00641.6735,E,1,04,14.5,123.0,M,47.6,M,0.0,0000*46
$GPVTG,,T,,M,0.000000,N,0.000000,K*4E
$GPGGA,173847.878,5109.4000,N,00641.6735,E,1,04,14.4,123.1,M,47.6,M,0.0,0000*47
$GPVTG,,T,,M,0.000000,N,0.000000,K*4E
$GPGGA,173848.878,5109.3999,N,00641.6734,E,1,04,14.4,123.3,M,47.6,M,0.0,0000*45
$GPVTG,,T,,M,0.000000,N,0.000000,K*4E
$GPGGA,173849.878,5109.3998,N,00641.6732,E,1,04,14.4,123.5,M,47.6,M,0.0,0000*45
$GPVTG,,T,,M,0.000000,N,0.000000,K*4E
$GPGGA,173850.878,5109.3997,N,00641.6731,E,1,04,14.4,123.7,M,47.6,M,0.0,0000*43
$GPVTG,,T,,M,0.000000,N,0.000000,K*4E
$GPGGA,173851.878,5109.3996,N,00641.6729,E,1,04,14.4,123.9,M,47.6,M,0.0,0000*44
$GPVTG,,T,,M,0.000000,N,0.000000,K*4E
$GPGGA,173852.878,5109.3995,N,00641.6728,E,1,04,14.4,124.0,M,47.6,M,0.0,0000*4B
$GPVTG,,T,,M,0.000000,N,0.000000,K*4E
$GPGGA,173853.878,5109.3994,N,00641.6727,E,1,04,14.3,124.1,M,47.6,M,0.0,0000*42
$GPVTG,,T,,M,0.000000,N,0.000000,K*4E
$GPGGA,173854.878,5109.3994,N,00641.6727,E,1,04,14.3,124.1,M,47.6,M,0.0,0000*45
$GPVTG,,T,,M,0.000000,N,0.000000,K*4E
$GPGGA,173855.878,5109.3994,N,00641.6726,E,1,04,14.3,124.1,M,47.6,M,0.0,0000*45
$GPVTG,,T,,M,0.000000,N,0.000000,K*4E
$GPGGA,173856.878,5109.3993,N,00641.6727,E,1,04,14.3,124.0,M,47.6,M,0.0,0000*41
$GPVTG,,T,,M,0.000000,N,0.000000,K*4E
$GPGGA,173857.878,5109.3993,N,00641.6727,E,1,04,14.3,123.9,M,47.6,M,0.0,0000*4E
$GPVTG,,T,,M,0.000000,N,0.000000,K*4E
$GPGGA,173858.878,5109.3993,N,00641.6728,E,1,04,14.3,123.8,M,47.6,M,0.0,0000*4F
$GPVTG,,T,,M,0.000000,N,0.000000,K*4E
$GPGGA,173859.878,5109.3994,N,00641.6728,E,1,04,14.2,123.6,M,47.6,M,0.0,0000*46
$GPVTG,,T,,M,0.000000,N,0.000000,K*4E
$GPGGA,173900.878,5109.3994,N,00641.6729,E,1,04,14.2,123.4,M,47.6,M,0.0,0000*48
$GPVTG,,T,,M,0.000000,N,0.000000,K*4E
$GPGGA,173901.878,5109.3994,N,00641.6730,E,1,04,14.2,123.2,M,47.6,M,0.0,0000*47
$GPVTG,,T,,M,0.000000,N,0.000000,K*4E
$GPGGA,173902.877,5109.3995,N,00641.6732,E,1,04,14.2,122.9,M,47.6,M,0.0,0000*42
$GPVTG,,T,,M,0.000000,N,0.000000,K*4E
$GPGGA,173903.877,5109.3995,N,00641.6733,E,1,04,14.2,122.7,M,47.6,M,0.0,0000*4C
$GPVTG,,T,,M,0.000000,N,0.000000,K*4E
$GPGGA,173904.877,5109.3995,N,00641.6734,E,1,04,14.2,122.4,M,47.6,M,0.0,0000*4F
$GPVTG,,T,,M,0.000000,N,0.000000,K*4E
$GPGGA,173905.877,5109.3996,N,00641.6735,E,1,04,14.1,122.2,M,47.6,M,0.0,0000*49
$GPVTG,,T,,M,0.000000,N,0.000000,K*4E
$GPGGA,173906.877,5109.3996,N,00641.6736,E,1,04,14.1,122.0,M,47.6,M,0.0,0000*4B
$GPVTG,,T,,M,0.000000,N,0.000000,K*4E
$GPGGA,173907.877,5109.3996,N,00641.6737,E,1,04,14.1,121.8,M,47.6,M,0.0,0000*40
$GPVTG,,T,,M,0.000000,N,0.000000,K*4E
$GPGGA,173908.877,5109.3996,N,00641.6738,E,1,04,14.1,121.6,M,47.6,M,0.0,0000*4E
$GPVTG,,T,,M,0.000000,N,0.000000,K*4E
$GPGGA,173909.877,5109.3996,N,00641.6738,E,1,04,14.1,121.5,M,47.6,M,0.0,0000*4C
$GPVTG,,T,,M,0.000000,N,0.000000,K*4E
$GPGGA,173910.877,5109.3996,N,00641.6739,E,1,04,14.1,121.4,M,47.6,M,0.0,0000*44
$GPVTG,,T,,M,0.000000,N,0.000000,K*4E
$GPGGA,173911.877,5109.3996,N,00641.6739,E,1,04,14.1,121.3,M,47.6,M,0.0,0000*42
$GPVTG,,T,,M,0.000000,N,0.000000,K*4E
$GPGGA,173912.877,5109.3997,N,00641.6740,E,1,04,14.0,121.2,M,47.6,M,0.0,0000*4E
$GPVTG,,T,,M,0.000000,N,0.000000,K*4E
$GPGGA,173913.877,5109.3997,N,00641.6741,E,1,04,14.0,121.0,M,47.6,M,0.0,0000*4C
$GPVTG,,T,,M,0.000000,N,0.000000,K*4E
$GPGGA,173914.877,5109.3997,N,00641.6742,E,1,04,14.0,120.9,M,47.6,M,0.0,0000*40
$GPVTG,,T,,M,0.000000,N,0.000000,K*4E
$GPGGA,173915.877,5109.3997,N,00641.6743,E,1,04,14.0,120.9,M,47.6,M,0.0,0000*40
$GPVTG,,T,,M,0.000000,N,0.000000,K*4E
$GPGGA,173916.877,5109.3996,N,00641.6743,E,1,04,14.0,120.9,M,47.6,M,0.0,0000*42
$GPVTG,,T,,M,0.000000,N,0.000000,K*4E
$GPGGA,173917.877,5109.3996,N,00641.6743,E,1,04,14.0,121.0,M,47.6,M,0.0,0000*4B
$GPVTG,,T,,M,0.000000,N,0.000000,K*4E
$GPGGA,173918.876,5109.3995,N,00641.6743,E,1,04,13.9,121.0,M,47.6,M,0.0,0000*48
$GPVTG,,T,,M,0.000000,N,0.000000,K*4E
$GPGGA,173919.876,5109.3995,N,00641.6743,E,1,04,13.9,121.1,M,47.6,M,0.0,0000*48
$GPVTG,,T,,M,0.000000,N,0.000000,K*4E
$GPGGA,173920.876,5109.3995,N,00641.6743,E,1,04,13.9,121.2,M,47.6,M,0.0,0000*41
$GPVTG,,T,,M,0.000000,N,0.000000,K*4E
$GPGGA,173921.876,5109.3994,N,00641.6743,E,1,04,13.9,121.2,M,47.6,M,0.0,0000*41
$GPVTG,,T,,M,0.000000,N,0.000000,K*4E
$GPGGA,173922.876,5109.3994,N,00641.6743,E,1,04,13.9,121.2,M,47.6,M,0.0,0000*42
$GPVTG,,T,,M,0.000000,N,0.000000,K*4E
$GPGGA,173923.876,5109.3994,N,00641.6743,E,1,04,13.9,121.2,M,47.6,M,0.0,0000*43
$GPVTG,,T,,M,0.000000,N,0.000000,K*4E
$GPGGA,173924.876,5109.3994,N,00641.6744,E,1,04,13.8,121.2,M,47.6,M,0.0,0000*42
$GPVTG,,T,,M,0.000000,N,0.000000,K*4E
$GPGGA,173925.876,5109.3994,N,00641.6743,E,1,04,13.8,121.2,M,47.6,M,0.0,0000*44
$GPVTG,,T,,M,0.000000,N,0.000000,K*4E
$GPGGA,173926.876,5109.3994,N,00641.6743,E,1,04,13.8,121.2,M,47.6,M,0.0,0000*47
$GPVTG,,T,,M,0.000000,N,0.000000,K*4E
$GPGGA,173927.876,5109.3993,N,00641.6743,E,1,04,13.8,121.3,M,47.6,M,0.0,0000*40
$GPVTG,,T,,M,0.000000,N,0.000000,K*4E
$GPGGA,173928.876,5109.3993,N,00641.6743,E,1,04,13.8,121.3,M,47.6,M,0.0,0000*4F
$GPVTG,,T,,M,0.000000,N,0.000000,K*4E
$GPGGA,173929.876,5109.3993,N,00641.6742,E,1,04,13.8,121.3,M,47.6,M,0.0,0000*4F
$GPVTG,,T,,M,0.000000,N,0.000000,K*4E
$GPGGA,173930.876,5109.3993,N,00641.6742,E,1,04,13.8,121.3,M,47.6,M,0.0,0000*47
$GPVTG,,T,,M,0.000000,N,0.000000,K*4E
$GPGGA,173931.876,5109.3993,N,00641.6742,E,1,04,13.7,121.3,M,47.6,M,0.0,0000*49
$GPVTG,,T,,M,0.000000,N,0.000000,K*4E
$GPGGA,173932.876,5109.3993,N,00641.6742,E,1,04,13.7,121.3,M,47.6,M,0.0,0000*4A
$GPVTG,,T,,M,0.000000,N,0.000000,K*4E
$GPGGA,173933.876,5109.3993,N,00641.6742,E,1,04,13.7,121.3,M,47.6,M,0.0,0000*4B
$GPVTG,,T,,M,0.000000,N,0.000000,K*4E
$GPGGA,173934.876,5109.3993,N,00641.6742,E,1,04,13.7,121.2,M,47.6,M,0.0,0000*4D
$GPVTG,,T,,M,0.000000,N,0.000000,K*4E
$GPGGA,173935.875,5109.3993,N,00641.6743,E,1,04,13.7,121.2,M,47.6,M,0.0,0000*4E
$GPVTG,,T,,M,0.000000,N,0.000000,K*4E
$GPGGA,173936.875,5109.3992,N,00641.6743,E,1,04,13.7,121.2,M,47.6,M,0.0,0000*4C
$GPVTG,,T,,M,0.000000,N,0.000000,K*4E
$GPGGA,173937.875,5109.3992,N,00641.6742,E,1,04,13.7,121.3,M,47.6,M,0.0,0000*4D
$GPVTG,,T,,M,0.000000,N,0.000000,K*4E
$GPGGA,173938.875,5109.3991,N,00641.6742,E,1,04,13.6,121.4,M,47.6,M,0.0,0000*47
$GPVTG,,T,,M,0.000000,N,0.000000,K*4E
$GPGGA,173939.875,5109.3991,N,00641.6741,E,1,04,13.6,121.6,M,47.6,M,0.0,0000*47
$GPVTG,,T,,M,0.000000,N,0.000000,K*4E
$GPGGA,173940.875,5109.3990,N,00641.6740,E,1,04,13.6,121.7,M,47.6,M,0.0,0000*48
$GPVTG,,T,,M,0.000000,N,0.000000,K*4E
$GPGGA,173941.875,5109.3989,N,00641.6739,E,1,04,13.6,121.9,M,47.6,M,0.0,0000*41
$GPVTG,,T,,M,0.000000,N,0.000000,K*4E
$GPGGA,173942.875,5109.3989,N,00641.6738,E,1,04,13.6,122.1,M,47.6,M,0.0,0000*48
$GPVTG,,T,,M,0.000000,N,0.000000,K*4E
$GPGGA,173943.875,5109.3988,N,00641.6737,E,1,04,13.6,122.2,M,47.6,M,0.0,0000*44
$GPVTG,,T,,M,0.000000,N,0.000000,K*4E
$GPGGA,173944.875,5109.3988,N,00641.6737,E,1,04,13.5,122.3,M,47.6,M,0.0,0000*41
$GPVTG,,T,,M,0.000000,N,0.000000,K*4E
$GPGGA,173945.875,5109.3988,N,00641.6737,E,1,04,13.5,122.4,M,47.6,M,0.0,0000*47
$GPVTG,,T,,M,0.000000,N,0.000000,K*4E
$GPGGA,173946.875,5109.3987,N,00641.6737,E,1,04,13.5,122.4,M,47.6,M,0.0,0000*4B
$GPVTG,,T,,M,0.000000,N,0.000000,K*4E
$GPGGA,173947.875,5109.3987,N,00641.6737,E,1,04,13.5,122.4,M,47.6,M,0.0,0000*4A
$GPVTG,,T,,M,0.000000,N,0.000000,K*4E
$GPGGA,173948.875,5109.3987,N,00641.6738,E,1,04,13.5,122.4,M,47.6,M,0.0,0000*4A
$GPVTG,,T,,M,0.000000,N,0.000000,K*4E
$GPGGA,173949.875,5109.3987,N,00641.6738,E,1,04,13.5,122.4,M,47.6,M,0.0,0000*4B
$GPVTG,,T,,M,0.000000,N,0.000000,K*4E
$GPGGA,173950.875,5109.3987,N,00641.6738,E,1,04,13.5,122.4,M,47.6,M,0.0,0000*43
$GPVTG,,T,,M,0.000000,N,0.000000,K*4E
$GPGGA,173951.874,5109.3987,N,00641.6739,E,1,04,13.4,122.4,M,47.6,M,0.0,0000*43
$GPVTG,,T,,M,0.000000,N,0.000000,K*4E
$GPGGA,173952.874,5109.3987,N,00641.6739,E,1,04,13.4,122.3,M,47.6,M,0.0,0000*47
$GPVTG,,T,,M,0.000000,N,0.000000,K*4E
$GPGGA,173953.874,5109.3987,N,00641.6740,E,1,04,13.4,122.2,M,47.6,M,0.0,0000*49
$GPVTG,,T,,M,0.000000,N,0.000000,K*4E
$GPGGA,173954.874,5109.3987,N,00641.6740,E,1,04,13.4,122.2,M,47.6,M,0.0,0000*4E
$GPVTG,,T,,M,0.000000,N,0.000000,K*4E
$GPGGA,173955.874,5109.3987,N,00641.6741,E,1,04,13.4,122.2,M,47.6,M,0.0,0000*4E
$GPVTG,,T,,M,0.000000,N,0.000000,K*4E
$GPGGA,173956.874,5109.3986,N,00641.6741,E,1,04,13.4,122.2,M,47.6,M,0.0,0000*4C
$GPVTG,,T,,M,0.000000,N,0.000000,K*4E
$GPGGA,173957.874,5109.3986,N,00641.6740,E,1,04,13.4,122.3,M,47.6,M,0.0,0000*4D
$GPVTG,,T,,M,0.000000,N,0.000000,K*4E
$GPGGA,173958.874,5109.3985,N,00641.6740,E,1,04,13.3,122.4,M,47.6,M,0.0,0000*41
$GPVTG,,T,,M,0.000000,N,0.000000,K*4E
$GPGGA,173959.874,5109.3985,N,00641.6740,E,1,04,13.3,122.5,M,47.6,M,0.0,0000*41
$GPVTG,,T,,M,0.000000,N,0.000000,K*4E
$GPGGA,174000.874,5109.3985,N,00641.6740,E,1,04,13.3,122.5,M,47.6,M,0.0,0000*43
$GPVTG,,T,,M,0.000000,N,0.000000,K*4E
$GPGGA,174001.874,5109.3985,N,00641.6741,E,1,04,13.3,122.5,M,47.6,M,0.0,0000*43
$GPVTG,,T,,M,0.000000,N,0.000000,K*4E
$GPGGA,174002.874,5109.3985,N,00641.6741,E,1,04,13.3,122.5,M,47.6,M,0.0,0000*40
$GPVTG,,T,,M,0.000000,N,0.000000,K*4E
$GPGGA,174003.874,5109.3984,N,00641.6741,E,1,04,13.3,122.6,M,47.6,M,0.0,0000*43
$GPVTG,,T,,M,0.000000,N,0.000000,K*4E
$GPGGA,174004.874,5109.3984,N,00641.6740,E,1,04,13.3,122.7,M,47.6,M,0.0,0000*44
$GPVTG,,T,,M,0.000000,N,0.000000,K*4E
$GPGGA,174005.874,5109.4003,N,00641.6784,E,1,05,3.9,116.5,M,47.6,M,0.0,0000*73
$GPVTG,,T,,M,0.000000,N,0.000000,K*4E
$GPGGA,174006.874,5109.4013,N,00641.6808,E,1,05,3.9,113.2,M,47.6,M,0.0,0000*78
$GPVTG,,T,,M,0.000000,N,0.000000,K*4E
$GPGGA,174007.874,5109.4018,N,00641.6820,E,1,05,3.9,111.4,M,47.6,M,0.0,0000*7C
$GPVTG,,T,,M,0.000000,N,0.000000,K*4E
$GPGGA,174008.873,5109.4023,N,00641.6831,E,1,05,3.9,109.8,M,47.6,M,0.0,0000*79
$GPVTG,,T,,M,0.000000,N,0.000000,K*4E
$GPGGA,174009.873,5109.4025,N,00641.6837,E,1,05,3.9,109.0,M,47.6,M,0.0,0000*70
$GPVTG,,T,,M,0.000000,N,0.000000,K*4E
$GPGGA,174010.873,5109.4028,N,00641.6842,E,1,05,3.9,108.3,M,47.6,M,0.0,0000*75
$GPVTG,,T,,M,0.000000,N,0.000000,K*4E
$GPGGA,174011.873,5109.4030,N,00641.6848,E,1,05,3.9,107.5,M,47.6,M,0.0,0000*7E
$GPVTG,,T,,M,0.000000,N,0.000000,K*4E
$GPGGA,174012.873,5109.4032,N,00641.6852,E,1,05,3.9,106.9,M,47.6,M,0.0,0000*79
$GPVTG,,T,,M,0.000000,N,0.000000,K*4E
$GPGGA,174013.873,5109.4033,N,00641.6856,E,1,05,3.9,106.3,M,47.6,M,0.0,0000*77
$GPVTG,,T,,M,0.000000,N,0.000000,K*4E
$GPGGA,174014.873,5109.4033,N,00641.6858,E,1,05,3.9,106.1,M,47.6,M,0.0,0000*7C
$GPVTG,,T,,M,0.000000,N,0.000000,K*4E
$GPGGA,174015.873,5109.4034,N,00641.6860,E,1,05,3.9,105.8,M,47.6,M,0.0,0000*7B
$GPVTG,,T,,M,0.000000,N,0.000000,K*4E
$GPGGA,174016.873,5109.4036,N,00641.6863,E,1,05,3.9,105.3,M,47.6,M,0.0,0000*72
$GPVTG,,T,,M,0.000000,N,0.000000,K*4E
$GPGGA,174017.873,5109.4037,N,00641.6866,E,1,05,3.9,104.8,M,47.6,M,0.0,0000*7D
$GPVTG,,T,,M,0.000000,N,0.000000,K*4E
$GPGGA,174018.873,5109.4038,N,00641.6870,E,1,05,3.9,104.2,M,47.6,M,0.0,0000*70
$GPVTG,,T,,M,0.000000,N,0.000000,K*4E
$GPGGA,174019.873,5109.4040,N,00641.6872,E,1,05,3.9,103.8,M,47.6,M,0.0,0000*71
$GPVTG,,T,,M,0.000000,N,0.000000,K*4E
$GPGGA,174020.873,5109.4040,N,00641.6874,E,1,05,3.9,103.4,M,47.6,M,0.0,0000*71
$GPVTG,,T,,M,0.000000,N,0.000000,K*4E
$GPGGA,174021.873,5109.4041,N,00641.6875,E,1,05,3.9,103.1,M,47.6,M,0.0,0000*75
$GPVTG,,T,,M,0.000000,N,0.000000,K*4E
$GPGGA,174022.873,5109.4041,N,00641.6875,E,1,05,3.9,103.0,M,47.6,M,0.0,0000*77
$GPVTG,,T,,M,0.000000,N,0.000000,K*4E
$GPGGA,174023.873,5109.4041,N,00641.6875,E,1,05,3.9,102.9,M,47.6,M,0.0,0000*7E
$GPVTG,,T,,M,0.000000,N,0.000000,K*4E
$GPGGA,174024.872,5109.4041,N,00641.6874,E,1,05,3.9,103.0,M,47.6,M,0.0,0000*71
$GPVTG,,T,,M,0.000000,N,0.000000,K*4E
$GPGGA,174025.872,5109.4040,N,00641.6872,E,1,05,3.9,103.1,M,47.6,M,0.0,0000*76
$GPVTG,,T,,M,0.000000,N,0.000000,K*4E
$GPGGA,174026.872,5109.4039,N,00641.6870,E,1,05,3.9,103.3,M,47.6,M,0.0,0000*7B
$GPVTG,,T,,M,0.000000,N,0.000000,K*4E
$GPGGA,174027.872,5109.4038,N,00641.6867,E,1,05,3.9,103.6,M,47.6,M,0.0,0000*78
$GPVTG,,T,,M,0.000000,N,0.000000,K*4E
$GPGGA,174028.872,5109.4037,N,00641.6864,E,1,05,3.9,103.9,M,47.6,M,0.0,0000*74
$GPVTG,,T,,M,0.000000,N,0.000000,K*4E
$GPGGA,174029.872,5109.4035,N,00641.6862,E,1,05,3.9,104.1,M,47.6,M,0.0,0000*7E
$GPVTG,,T,,M,0.000000,N,0.000000,K*4E
$GPGGA,174030.872,5109.4035,N,00641.6860,E,1,05,3.9,104.2,M,47.6,M,0.0,0000*77
$GPVTG,,T,,M,0.000000,N,0.000000,K*4E
$GPGGA,174031.872,5109.4034,N,00641.6860,E,1,05,3.9,104.1,M,47.6,M,0.0,0000*74
$GPVTG,,T,,M,0.000000,N,0.000000,K*4E
$GPGGA,174032.872,5109.4034,N,00641.6859,E,1,05,3.9,104.1,M,47.6,M,0.0,0000*7D
$GPVTG,,T,,M,0.000000,N,0.000000,K*4E
$GPGGA,174033.872,5109.4034,N,00641.6860,E,1,05,3.9,103.9,M,47.6,M,0.0,0000*79
$GPVTG,,T,,M,0.000000,N,0.000000,K*4E
$GPGGA,174034.872,5109.4035,N,00641.6860,E,1,05,3.9,103.7,M,47.6,M,0.0,0000*71
$GPVTG,,T,,M,0.000000,N,0.000000,K*4E
$GPGGA,174035.872,5109.4035,N,00641.6860,E,1,05,3.9,103.6,M,47.6,M,0.0,0000*71
$GPVTG,,T,,M,0.000000,N,0.000000,K*4E
$GPGGA,174036.872,5109.4035,N,00641.6860,E,1,05,3.9,103.5,M,47.6,M,0.0,0000*71
$GPVTG,,T,,M,0.000000,N,0.000000,K*4E
$GPGGA,174037.872,5109.4035,N,00641.6860,E,1,05,3.9,103.3,M,47.6,M,0.0,0000*76
$GPVTG,,T,,M,0.000000,N,0.000000,K*4E
$GPGGA,174038.872,5109.4035,N,00641.6860,E,1,05,3.9,103.2,M,47.6,M,0.0,0000*78
$GPVTG,,T,,M,0.000000,N,0.000000,K*4E
$GPGGA,174039.872,5109.4035,N,00641.6860,E,1,05,3.9,103.0,M,47.6,M,0.0,0000*7B
$GPVTG,,T,,M,0.000000,N,0.000000,K*4E
$GPGGA,174040.872,5109.4035,N,00641.6860,E,1,05,3.9,102.8,M,47.6,M,0.0,0000*7C
$GPVTG,,T,,M,0.000000,N,0.000000,K*4E
$GPGGA,174041.871,5109.4035,N,00641.6861,E,1,05,3.9,102.7,M,47.6,M,0.0,0000*70
$GPVTG,,T,,M,0.000000,N,0.000000,K*4E
$GPGGA,174042.871,5109.4035,N,00641.6861,E,1,05,3.9,102.6,M,47.6,M,0.0,0000*72
$GPVTG,,T,,M,0.000000,N,0.000000,K*4E
$GPGGA,174043.871,5109.4035,N,00641.6862,E,1,05,3.9,102.6,M,47.6,M,0.0,0000*70
$GPVTG,,T,,M,0.000000,N,0.000000,K*4E
$GPGGA,174044.871,5109.4035,N,00641.6863,E,1,05,3.9,102.4,M,47.6,M,0.0,0000*74
$GPVTG,,T,,M,0.000000,N,0.000000,K*4E
$GPGGA,174045.871,5109.4036,N,00641.6864,E,1,05,3.9,102.3,M,47.6,M,0.0,0000*76
$GPVTG,,T,,M,0.000000,N,0.000000,K*4E
$GPGGA,174046.871,5109.4036,N,00641.6865,E,1,05,3.9,102.2,M,47.6,M,0.0,0000*75
$GPVTG,,T,,M,0.000000,N,0.000000,K*4E
$GPGGA,174047.871,5109.4036,N,00641.6867,E,1,05,3.9,102.0,M,47.6,M,0.0,0000*74
$GPVTG,,T,,M,0.000000,N,0.000000,K*4E
$GPGGA,174048.871,5109.4037,N,00641.6869,E,1,05,3.9,101.8,M,47.6,M,0.0,0000*7F
$GPVTG,,T,,M,0.000000,N,0.000000,K*4E
$GPGGA,174049.871,5109.4038,N,00641.6871,E,1,05,3.9,101.6,M,47.6,M,0.0,0000*76
$GPVTG,,T,,M,0.000000,N,0.000000,K*4E
$GPGGA,174050.871,5109.4039,N,00641.6874,E,1,05,3.9,101.4,M,47.6,M,0.0,0000*78
$GPVTG,,T,,M,0.000000,N,0.000000,K*4E
$GPGGA,174051.871,5109.4040,N,00641.6876,E,1,05,3.9,101.2,M,47.6,M,0.0,0000*73
$GPVTG,,T,,M,0.000000,N,0.000000,K*4E
$GPGGA,174052.871,5109.4041,N,00641.6877,E,1,05,3.9,101.0,M,47.6,M,0.0,0000*72
$GPVTG,,T,,M,0.000000,N,0.000000,K*4E
$GPGGA,174053.871,5109.4042,N,00641.6879,E,1,05,3.9,100.8,M,47.6,M,0.0,0000*77
$GPVTG,,T,,M,0.000000,N,0.000000,K*4E
$GPGGA,174054.871,5109.4042,N,00641.6881,E,1,05,3.9,100.5,M,47.6,M,0.0,0000*7A
$GPVTG,,T,,M,0.000000,N,0.000000,K*4E
$GPGGA,174055.871,5109.4043,N,00641.6882,E,1,05,3.9,100.2,M,47.6,M,0.0,0000*7E
$GPVTG,,T,,M,0.000000,N,0.000000,K*4E
$GPGGA,174056.871,5109.4043,N,00641.6883,E,1,05,3.9,99.9,M,47.6,M,0.0,0000*46
$GPVTG,,T,,M,0.000000,N,0.000000,K*4E
$GPGGA,174057.870,5109.4044,N,00641.6884,E,1,05,3.9,99.6,M,47.6,M,0.0,0000*49
$GPVTG,,T,,M,0.000000,N,0.000000,K*4E
$GPGGA,174058.870,5109.4044,N,00641.6885,E,1,05,3.9,99.5,M,47.6,M,0.0,0000*44
$GPVTG,,T,,M,0.000000,N,0.000000,K*4E
$GPGGA,174059.870,5109.4044,N,00641.6885,E,1,05,3.9,99.4,M,47.6,M,0.0,0000*44
$GPVTG,,T,,M,0.000000,N,0.000000,K*4E
$GPGGA,174100.870,5109.4044,N,00641.6885,E,1,05,3.9,99.3,M,47.6,M,0.0,0000*4E
$GPVTG,,T,,M,0.000000,N,0.000000,K*4E
$GPGGA,174101.870,5109.4044,N,00641.6885,E,1,05,3.9,99.4,M,47.6,M,0.0,0000*48
$GPVTG,,T,,M,0.000000,N,0.000000,K*4E
$GPGGA,174102.870,5109.4043,N,00641.6883,E,1,05,3.9,99.5,M,47.6,M,0.0,0000*4B
$GPVTG,,T,,M,0.000000,N,0.000000,K*4E
$GPGGA,174103.870,5109.4042,N,00641.6883,E,1,05,3.9,99.7,M,47.6,M,0.0,0000*49
$GPVTG,,T,,M,0.000000,N,0.000000,K*4E
$GPGGA,174104.870,5109.4042,N,00641.6882,E,1,05,3.9,99.9,M,47.6,M,0.0,0000*41
$GPVTG,,T,,M,0.000000,N,0.000000,K*4E
$GPGGA,174105.870,5109.4041,N,00641.6881,E,1,05,3.9,100.1,M,47.6,M,0.0,0000*79
$GPVTG,,T,,M,0.000000,N,0.000000,K*4E
$GPGGA,174106.870,5109.4041,N,00641.6882,E,1,05,3.9,100.2,M,47.6,M,0.0,0000*7A
$GPVTG,,T,,M,0.000000,N,0.000000,K*4E
$GPGGA,174107.870,5109.4041,N,00641.6882,E,1,05,3.9,100.3,M,47.6,M,0.0,0000*7A
$GPVTG,,T,,M,0.000000,N,0.000000,K*4E
$GPGGA,174108.870,5109.4041,N,00641.6882,E,1,05,3.9,100.4,M,47.6,M,0.0,0000*72
$GPVTG,,T,,M,0.000000,N,0.000000,K*4E
$GPGGA,174109.870,5109.4041,N,00641.6882,E,1,05,3.9,100.5,M,47.6,M,0.0,0000*72
$GPVTG,,T,,M,0.000000,N,0.000000,K*4E
$GPGGA,174110.870,5109.4041,N,00641.6882,E,1,05,3.9,100.7,M,47.6,M,0.0,0000*78
$GPVTG,,T,,M,0.000000,N,0.000000,K*4E
$GPGGA,174111.870,5109.4040,N,00641.6881,E,1,05,3.9,100.9,M,47.6,M,0.0,0000*75
$GPVTG,,T,,M,0.000000,N,0.000000,K*4E
$GPGGA,174112.870,5109.4040,N,00641.6881,E,1,05,3.9,101.0,M,47.6,M,0.0,0000*7E
$GPVTG,,T,,M,0.000000,N,0.000000,K*4E
$GPGGA,174113.870,5109.4040,N,00641.6881,E,1,05,3.9,101.1,M,47.6,M,0.0,0000*7E
$GPVTG,,T,,M,0.000000,N,0.000000,K*4E
$GPGGA,174114.869,5109.4040,N,00641.6881,E,1,05,3.9,101.3,M,47.6,M,0.0,0000*73
$GPVTG,,T,,M,0.000000,N,0.000000,K*4E
$GPGGA,174115.869,5109.4040,N,00641.6881,E,1,05,3.9,101.5,M,47.6,M,0.0,0000*74
$GPVTG,,T,,M,0.000000,N,0.000000,K*4E
$GPGGA,174116.869,5109.4039,N,00641.6880,E,1,05,3.9,101.6,M,47.6,M,0.0,0000*7B
$GPVTG,,T,,M,0.000000,N,0.000000,K*4E
$GPGGA,174117.869,5109.4038,N,00641.6879,E,1,05,3.9,101.8,M,47.6,M,0.0,0000*73
$GPVTG,,T,,M,0.000000,N,0.000000,K*4E
$GPGGA,174118.869,5109.4038,N,00641.6877,E,1,05,3.9,102.1,M,47.6,M,0.0,0000*78
$GPVTG,,T,,M,0.000000,N,0.000000,K*4E
$GPGGA,174119.869,5109.4037,N,00641.6876,E,1,05,3.9,102.3,M,47.6,M,0.0,0000*75
$GPVTG,,T,,M,0.000000,N,0.000000,K*4E
$GPGGA,174120.869,5109.4036,N,00641.6874,E,1,05,3.9,102.6,M,47.6,M,0.0,0000*79
$GPVTG,,T,,M,0.000000,N,0.000000,K*4E
$GPGGA,174121.869,5109.4035,N,00641.6873,E,1,05,3.9,102.8,M,47.6,M,0.0,0000*72
$GPVTG,,T,,M,0.000000,N,0.000000,K*4E
$GPGGA,174122.869,5109.4035,N,00641.6872,E,1,05,3.9,102.9,M,47.6,M,0.0,0000*71
$GPVTG,,T,,M,0.000000,N,0.000000,K*4E
$GPGGA,174123.869,5109.4034,N,00641.6871,E,1,05,3.9,103.1,M,47.6,M,0.0,0000*7B
$GPVTG,,T,,M,0.000000,N,0.000000,K*4E
$GPGGA,174124.869,5109.4034,N,00641.6871,E,1,05,3.9,103.2,M,47.6,M,0.0,0000*7F
$GPVTG,,T,,M,0.000000,N,0.000000,K*4E
$GPGGA,174125.869,5109.4034,N,00641.6870,E,1,05,3.9,103.4,M,47.6,M,0.0,0000*79
$GPVTG,,T,,M,0.000000,N,0.000000,K*4E
$GPGGA,174126.869,5109.4034,N,00641.6870,E,1,05,3.9,103.7,M,47.6,M,0.0,0000*79
$GPVTG,,T,,M,0.000000,N,0.000000,K*4E
$GPGGA,174127.869,5109.4034,N,00641.6870,E,1,05,3.9,103.8,M,47.6,M,0.0,0000*77
$GPVTG,,T,,M,0.000000,N,0.000000,K*4E
$GPGGA,174128.869,5109.4034,N,00641.6870,E,1,05,3.9,104.0,M,47.6,M,0.0,0000*77
$GPVTG,,T,,M,0.000000,N,0.000000,K*4E
$GPGGA,174129.869,5109.4034,N,00641.6870,E,1,05,3.9,104.2,M,47.6,M,0.0,0000*74
$GPVTG,,T,,M,0.000000,N,0.000000,K*4E
$GPGGA,174130.868,5109.4034,N,00641.6870,E,1,05,3.9,104.4,M,47.6,M,0.0,0000*7B
$GPVTG,,T,,M,0.000000,N,0.000000,K*4E
$GPGGA,174131.868,5109.4034,N,00641.6871,E,1,05,3.9,104.6,M,47.6,M,0.0,0000*79
$GPVTG,,T,,M,0.000000,N,0.000000,K*4E
$GPGGA,174132.868,5109.4035,N,00641.6872,E,1,05,3.9,104.5,M,47.6,M,0.0,0000*7B
$GPVTG,,T,,M,0.000000,N,0.000000,K*4E
$GPGGA,174133.868,5109.4036,N,00641.6874,E,1,05,3.9,104.5,M,47.6,M,0.0,0000*7F
$GPVTG,,T,,M,0.000000,N,0.000000,K*4E
$GPGGA,174134.868,5109.4037,N,00641.6876,E,1,05,3.9,104.3,M,47.6,M,0.0,0000*7D
$GPVTG,,T,,M,0.000000,N,0.000000,K*4E
$GPGGA,174135.868,5109.4038,N,00641.6878,E,1,05,3.9,104.2,M,47.6,M,0.0,0000*7C
$GPVTG,,T,,M,0.000000,N,0.000000,K*4E
$GPGGA,174136.868,5109.4039,N,00641.6880,E,1,05,3.9,103.9,M,47.6,M,0.0,0000*75
$GPVTG,,T,,M,0.000000,N,0.000000,K*4E
$GPGGA,174137.868,5109.4040,N,00641.6883,E,1,05,3.9,103.6,M,47.6,M,0.0,0000*76
$GPVTG,,T,,M,0.000000,N,0.000000,K*4E
$GPGGA,174138.868,5109.4042,N,00641.6886,E,1,05,3.9,103.3,M,47.6,M,0.0,0000*7B
$GPVTG,,T,,M,0.000000,N,0.000000,K*4E
$GPGGA,174139.868,5109.4043,N,00641.6889,E,1,05,3.9,102.9,M,47.6,M,0.0,0000*7F
$GPVTG,,T,,M,0.000000,N,0.000000,K*4E
$GPGGA,174140.868,5109.4045,N,00641.6892,E,1,05,3.9,102.6,M,47.6,M,0.0,0000*72
$GPVTG,,T,,M,0.000000,N,0.000000,K*4E
$GPGGA,174141.868,5109.4046,N,00641.6894,E,1,05,3.9,102.3,M,47.6,M,0.0,0000*73
$GPVTG,,T,,M,0.000000,N,0.000000,K*4E
$GPGGA,174142.868,5109.4047,N,00641.6897,E,1,05,3.9,102.0,M,47.6,M,0.0,0000*71
$GPVTG,,T,,M,0.000000,N,0.000000,K*4E
$GPGGA,174143.868,5109.4049,N,00641.6900,E,1,05,3.9,101.7,M,47.6,M,0.0,0000*75
$GPVTG,,T,,M,0.000000,N,0.000000,K*4E
$GPGGA,174144.868,5109.4051,N,00641.6904,E,1,05,3.9,101.3,M,47.6,M,0.0,0000*7B
$GPVTG,,T,,M,0.000000,N,0.000000,K*4E
$GPGGA,174145.868,5109.4052,N,00641.6906,E,1,05,3.9,100.9,M,47.6,M,0.0,0000*70
$GPVTG,,T,,M,0.000000,N,0.000000,K*4E
$GPGGA,174146.868,5109.4053,N,00641.6908,E,1,05,3.9,100.6,M,47.6,M,0.0,0000*73
$GPVTG,,T,,M,0.000000,N,0.000000,K*4E
$GPGGA,174147.867,5109.4053,N,00641.6909,E,1,05,3.9,100.3,M,47.6,M,0.0,0000*79
$GPVTG,,T,,M,0.000000,N,0.000000,K*4E
$GPGGA,174148.867,5109.4054,N,00641.6910,E,1,05,3.9,100.1,M,47.6,M,0.0,0000*7B
$GPVTG,,T,,M,0.000000,N,0.000000,K*4E
$GPGGA,174149.867,5109.4055,N,00641.6912,E,1,05,3.9,99.8,M,47.6,M,0.0,0000*41
$GPVTG,,T,,M,0.000000,N,0.000000,K*4E
$GPGGA,174150.867,5109.4056,N,00641.6913,E,1,05,3.9,99.6,M,47.6,M,0.0,0000*45
$GPVTG,,T,,M,0.000000,N,0.000000,K*4E
$GPGGA,174151.867,5109.4057,N,00641.6915,E,1,05,3.9,99.4,M,47.6,M,0.0,0000*41
$GPVTG,,T,,M,0.000000,N,0.000000,K*4E
$GPGGA,174152.867,5109.4057,N,00641.6917,E,1,05,3.9,99.2,M,47.6,M,0.0,0000*46
$GPVTG,,T,,M,0.000000,N,0.000000,K*4E
$GPGGA,174153.867,5109.4058,N,00641.6917,E,1,05,3.9,99.1,M,47.6,M,0.0,0000*4B
$GPVTG,,T,,M,0.000000,N,0.000000,K*4E
$GPGGA,174154.867,5109.4058,N,00641.6918,E,1,05,3.9,99.0,M,47.6,M,0.0,0000*42
$GPVTG,,T,,M,0.000000,N,0.000000,K*4E
$GPGGA,174155.867,5109.4058,N,00641.6919,E,1,05,3.9,99.0,M,47.6,M,0.0,0000*42
$GPVTG,,T,,M,0.000000,N,0.000000,K*4E
$GPGGA,174156.867,5109.4059,N,00641.6919,E,1,05,3.8,98.9,M,47.6,M,0.0,0000*49
$GPVTG,,T,,M,0.000000,N,0.000000,K*4E
$GPGGA,174157.867,5109.4059,N,00641.6920,E,1,05,3.8,98.8,M,47.6,M,0.0,0000*43
$GPVTG,,T,,M,0.000000,N,0.000000,K*4E
$GPGGA,174158.867,5109.4060,N,00641.6921,E,1,05,3.8,98.7,M,47.6,M,0.0,0000*48
$GPVTG,,T,,M,0.000000,N,0.000000,K*4E
$GPGGA,174159.867,5109.4060,N,00641.6922,E,1,05,3.8,98.5,M,47.6,M,0.0,0000*48
$GPVTG,,T,,M,0.000000,N,0.000000,K*4E
$GPGGA,174200.867,5109.4060,N,00641.6922,E,1,05,3.8,98.4,M,47.6,M,0.0,0000*46
$GPVTG,,T,,M,0.000000,N,0.000000,K*4E
$GPGGA,174201.867,5109.4060,N,00641.6922,E,1,05,3.8,98.4,M,47.6,M,0.0,0000*47
$GPVTG,,T,,M,0.000000,N,0.000000,K*4E
$GPGGA,174202.867,5109.4060,N,00641.6921,E,1,05,3.8,98.3,M,47.6,M,0.0,0000*40
$GPVTG,,T,,M,0.000000,N,0.000000,K*4E
$GPGGA,174203.866,5109.4060,N,00641.6920,E,1,05,3.8,98.1,M,47.6,M,0.0,0000*43
$GPVTG,,T,,M,0.000000,N,0.000000,K*4E
$GPGGA,174204.866,5109.4060,N,00641.6920,E,1,05,3.8,98.0,M,47.6,M,0.0,0000*45
$GPVTG,,T,,M,0.000000,N,0.000000,K*4E
$GPGGA,174205.866,5109.4060,N,00641.6920,E,1,05,3.8,97.9,M,47.6,M,0.0,0000*42
$GPVTG,,T,,M,0.000000,N,0.000000,K*4E
$GPGGA,174206.866,5109.4060,N,00641.6919,E,1,05,3.8,97.8,M,47.6,M,0.0,0000*4A
$GPVTG,,T,,M,0.000000,N,0.000000,K*4E
$GPGGA,174207.866,5109.4060,N,00641.6918,E,1,05,3.8,97.8,M,47.6,M,0.0,0000*4A
$GPVTG,,T,,M,0.000000,N,0.000000,K*4E
$GPGGA,174208.866,5109.4060,N,00641.6917,E,1,05,3.8,97.8,M,47.6,M,0.0,0000*4A
$GPVTG,,T,,M,0.000000,N,0.000000,K*4E
$GPGGA,174209.866,5109.4060,N,00641.6917,E,1,05,3.8,97.8,M,47.6,M,0.0,0000*4B
$GPVTG,,T,,M,0.000000,N,0.000000,K*4E
$GPGGA,174210.866,5109.4060,N,00641.6917,E,1,05,3.8,97.7,M,47.6,M,0.0,0000*4C
$GPVTG,,T,,M,0.000000,N,0.000000,K*4E
$GPGGA,174211.866,5109.4061,N,00641.6917,E,1,05,3.8,97.5,M,47.6,M,0.0,0000*4E
$GPVTG,,T,,M,0.000000,N,0.000000,K*4E
$GPGGA,174212.866,5109.4061,N,00641.6917,E,1,05,3.8,97.5,M,47.6,M,0.0,0000*4D
$GPVTG,,T,,M,0.000000,N,0.000000,K*4E
$GPGGA,174213.866,5109.4061,N,00641.6916,E,1,05,3.8,97.4,M,47.6,M,0.0,0000*4C
$GPVTG,,T,,M,0.000000,N,0.000000,K*4E
$GPGGA,174214.866,5109.4061,N,00641.6916,E,1,05,3.8,97.4,M,47.6,M,0.0,0000*4B
$GPVTG,,T,,M,0.000000,N,0.000000,K*4E
$GPGGA,174215.866,5109.4061,N,00641.6916,E,1,05,3.8,97.4,M,47.6,M,0.0,0000*4A
$GPVTG,,T,,M,0.000000,N,0.000000,K*4E
$GPGGA,174216.866,5109.4062,N,00641.6916,E,1,05,3.8,97.3,M,47.6,M,0.0,0000*4D
$GPVTG,,T,,M,0.000000,N,0.000000,K*4E
$GPGGA,174217.866,5109.4062,N,00641.6917,E,1,05,3.8,97.2,M,47.6,M,0.0,0000*4C
$GPVTG,,T,,M,0.000000,N,0.000000,K*4E
$GPGGA,174218.866,5109.4062,N,00641.6917,E,1,05,3.8,97.2,M,47.6,M,0.0,0000*43
$GPVTG,,T,,M,0.000000,N,0.000000,K*4E
$GPGGA,174219.866,5109.4063,N,00641.6918,E,1,05,3.8,97.0,M,47.6,M,0.0,0000*4E
$GPVTG,,T,,M,0.000000,N,0.000000,K*4E
$GPGGA,174220.865,5109.4064,N,00641.6920,E,1,05,3.8,96.8,M,47.6,M,0.0,0000*42
$GPVTG,,T,,M,0.000000,N,0.000000,K*4E
$GPGGA,174221.865,5109.4065,N,00641.6921,E,1,05,3.8,96.6,M,47.6,M,0.0,0000*4D
$GPVTG,,T,,M,0.000000,N,0.000000,K*4E
$GPGGA,174222.865,5109.4066,N,00641.6923,E,1,05,3.8,96.3,M,47.6,M,0.0,0000*4A
$GPVTG,,T,,M,0.000000,N,0.000000,K*4E
$GPGGA,174223.865,5109.4067,N,00641.6925,E,1,05,3.8,96.1,M,47.6,M,0.0,0000*4E
$GPVTG,,T,,M,0.000000,N,0.000000,K*4E
$GPGGA,174224.865,5109.4068,N,00641.6926,E,1,05,3.8,95.8,M,47.6,M,0.0,0000*4F
$GPVTG,,T,,M,0.000000,N,0.000000,K*4E
$GPGGA,174225.865,5109.4069,N,00641.6928,E,1,05,3.8,95.5,M,47.6,M,0.0,0000*4C
$GPVTG,,T,,M,0.000000,N,0.000000,K*4E
$GPGGA,174226.865,5109.4070,N,00641.6929,E,1,05,3.8,95.2,M,47.6,M,0.0,0000*41
$GPVTG,,T,,M,0.000000,N,0.000000,K*4E
$GPGGA,174227.865,5109.4071,N,00641.6930,E,1,05,3.8,94.9,M,47.6,M,0.0,0000*43
$GPVTG,,T,,M,0.000000,N,0.000000,K*4E
$GPGGA,174228.865,5109.4072,N,00641.6932,E,1,05,3.8,94.6,M,47.6,M,0.0,0000*42
$GPVTG,,T,,M,0.000000,N,0.000000,K*4E
$GPGGA,174229.865,5109.4073,N,00641.6934,E,1,05,3.8,94.3,M,47.6,M,0.0,0000*41
$GPVTG,,T,,M,0.000000,N,0.000000,K*4E
$GPGGA,174230.865,5109.4074,N,00641.6935,E,1,05,3.8,94.0,M,47.6,M,0.0,0000*4C
$GPVTG,,T,,M,0.000000,N,0.000000,K*4E
$GPGGA,174231.865,5109.4075,N,00641.6937,E,1,05,3.8,93.6,M,47.6,M,0.0,0000*4F
$GPVTG,,T,,M,0.000000,N,0.000000,K*4E
$GPGGA,174232.865,5109.4076,N,00641.6938,E,1,05,3.8,93.3,M,47.6,M,0.0,0000*45
$GPVTG,,T,,M,0.000000,N,0.000000,K*4E
$GPGGA,174233.865,5109.4078,N,00641.6940,E,1,05,3.8,92.9,M,47.6,M,0.0,0000*4E
$GPVTG,,T,,M,0.000000,N,0.000000,K*4E
$GPGGA,174234.865,5109.4078,N,00641.6941,E,1,05,3.8,92.7,M,47.6,M,0.0,0000*46
$GPVTG,,T,,M,0.000000,N,0.000000,K*4E
$GPGGA,174235.865,5109.4079,N,00641.6942,E,1,05,3.8,92.5,M,47.6,M,0.0,0000*47
$GPVTG,,T,,M,0.000000,N,0.000000,K*4E
$GPGGA,174236.864,5109.4079,N,00641.6943,E,1,05,3.8,92.4,M,47.6,M,0.0,0000*45
$GPVTG,,T,,M,0.000000,N,0.000000,K*4E
$GPGGA,174237.864,5109.4080,N,00641.6943,E,1,05,3.8,92.4,M,47.6,M,0.0,0000*42
$GPVTG,,T,,M,0.000000,N,0.000000,K*4E
$GPGGA,174238.864,5109.4079,N,00641.6942,E,1,05,3.8,92.4,M,47.6,M,0.0,0000*4A
$GPVTG,,T,,M,0.000000,N,0.000000,K*4E
$GPGGA,174239.864,5109.4079,N,00641.6941,E,1,05,3.8,92.6,M,47.6,M,0.0,0000*4A
$GPVTG,,T,,M,0.000000,N,0.000000,K*4E
$GPGGA,174240.864,5109.4078,N,00641.6940,E,1,05,3.8,92.8,M,47.6,M,0.0,0000*4A
$GPVTG,,T,,M,0.000000,N,0.000000,K*4E
$GPGGA,174241.864,5109.4078,N,00641.6939,E,1,05,3.8,93.0,M,47.6,M,0.0,0000*4C
$GPVTG,,T,,M,0.000000,N,0.000000,K*4E
$GPGGA,174242.864,5109.4078,N,00641.6939,E,1,05,3.8,93.1,M,47.6,M,0.0,0000*4E
$GPVTG,,T,,M,0.000000,N,0.000000,K*4E
$GPGGA,174243.864,5109.4078,N,00641.6938,E,1,05,3.8,93.2,M,47.6,M,0.0,0000*4D
$GPVTG,,T,,M,0.000000,N,0.000000,K*4E
$GPGGA,174244.864,5109.4078,N,00641.6938,E,1,05,3.8,93.3,M,47.6,M,0.0,0000*4B
$GPVTG,,T,,M,0.000000,N,0.000000,K*4E
$GPGGA,174245.864,5109.4077,N,00641.6937,E,1,05,3.8,93.3,M,47.6,M,0.0,0000*4A
$GPVTG,,T,,M,0.000000,N,0.000000,K*4E
$GPGGA,174246.864,5109.4077,N,00641.6936,E,1,05,3.8,93.4,M,47.6,M,0.0,0000*4F
$GPVTG,,T,,M,0.000000,N,0.000000,K*4E
$GPGGA,174247.864,5109.4076,N,00641.6936,E,1,05,3.8,93.4,M,47.6,M,0.0,0000*4F
$GPVTG,,T,,M,0.000000,N,0.000000,K*4E
$GPGGA,174248.864,5109.4076,N,00641.6935,E,1,05,3.8,93.4,M,47.6,M,0.0,0000*43
$GPVTG,,T,,M,0.000000,N,0.000000,K*4E
$GPGGA,174249.864,5109.4076,N,00641.6935,E,1,05,3.8,93.4,M,47.6,M,0.0,0000*42
$GPVTG,,T,,M,0.000000,N,0.000000,K*4E
$GPGGA,174250.864,5109.4076,N,00641.6935,E,1,05,3.8,93.4,M,47.6,M,0.0,0000*4A
$GPVTG,,T,,M,0.000000,N,0.000000,K*4E
$GPGGA,174251.864,5109.4076,N,00641.6935,E,1,05,3.8,93.4,M,47.6,M,0.0,0000*4B
$GPVTG,,T,,M,0.000000,N,0.000000,K*4E
$GPGGA,174252.864,5109.4076,N,00641.6935,E,1,05,3.8,93.4,M,47.6,M,0.0,0000*48
$GPVTG,,T,,M,0.000000,N,0.000000,K*4E
$GPGGA,174253.863,5109.4076,N,00641.6935,E,1,05,3.8,93.4,M,47.6,M,0.0,0000*4E
$GPVTG,,T,,M,0.000000,N,0.000000,K*4E
$GPGGA,174254.863,5109.4076,N,00641.6935,E,1,05,3.8,93.5,M,47.6,M,0.0,0000*48
$GPVTG,,T,,M,0.000000,N,0.000000,K*4E
$GPGGA,174255.863,5109.4075,N,00641.6934,E,1,05,3.8,93.7,M,47.6,M,0.0,0000*49
$GPVTG,,T,,M,0.000000,N,0.000000,K*4E
$GPGGA,174256.863,5109.4074,N,00641.6933,E,1,05,3.8,94.0,M,47.6,M,0.0,0000*4C
$GPVTG,,T,,M,0.000000,N,0.000000,K*4E
$GPGGA,174257.863,5109.4073,N,00641.6932,E,1,05,3.8,94.3,M,47.6,M,0.0,0000*48
$GPVTG,,T,,M,0.000000,N,0.000000,K*4E
$GPGGA,174258.863,5109.4072,N,00641.6929,E,1,05,3.8,94.7,M,47.6,M,0.0,0000*48
$GPVTG,,T,,M,0.000000,N,0.000000,K*4E
$GPGGA,174259.863,5109.4071,N,00641.6927,E,1,05,3.8,95.0,M,47.6,M,0.0,0000*42
$GPVTG,,T,,M,0.000000,N,0.000000,K*4E
$GPGGA,174300.863,5109.4070,N,00641.6925,E,1,05,3.8,95.3,M,47.6,M,0.0,0000*4F
$GPVTG,,T,,M,0.000000,N,0.000000,K*4E
$GPGGA,174301.863,5109.4069,N,00641.6923,E,1,05,3.8,95.6,M,47.6,M,0.0,0000*45
$GPVTG,,T,,M,0.000000,N,0.000000,K*4E
$GPGGA,174302.863,5109.4068,N,00641.6921,E,1,05,3.8,95.9,M,47.6,M,0.0,0000*4A
$GPVTG,,T,,M,0.000000,N,0.000000,K*4E
$GPGGA,174303.863,5109.4067,N,00641.6919,E,1,05,3.8,96.2,M,47.6,M,0.0,0000*47
$GPVTG,,T,,M,0.000000,N,0.000000,K*4E
$GPGGA,174304.863,5109.4066,N,00641.6918,E,1,05,3.8,96.4,M,47.6,M,0.0,0000*46
$GPVTG,,T,,M,0.000000,N,0.000000,K*4E
$GPGGA,174305.863,5109.4065,N,00641.6917,E,1,05,3.8,96.5,M,47.6,M,0.0,0000*4A
$GPVTG,,T,,M,0.000000,N,0.000000,K*4E
$GPGGA,174306.863,5109.4065,N,00641.6917,E,1,05,3.8,96.5,M,47.6,M,0.0,0000*49
$GPVTG,,T,,M,0.000000,N,0.000000,K*4E
$GPGGA,174307.863,5109.4065,N,00641.6917,E,1,05,3.8,96.4,M,47.6,M,0.0,0000*49
$GPVTG,,T,,M,0.000000,N,0.000000,K*4E
$GPGGA,174308.863,5109.4066,N,00641.6917,E,1,05,3.8,96.3,M,47.6,M,0.0,0000*42
$GPVTG,,T,,M,0.000000,N,0.000000,K*4E
$GPGGA,174309.862,5109.4066,N,00641.6918,E,1,05,3.8,96.2,M,47.6,M,0.0,0000*4C
$GPVTG,,T,,M,0.000000,N,0.000000,K*4E
$GPGGA,174310.862,5109.4067,N,00641.6919,E,1,05,3.8,96.0,M,47.6,M,0.0,0000*46
$GPVTG,,T,,M,0.000000,N,0.000000,K*4E
$GPGGA,174311.862,5109.4068,N,00641.6921,E,1,05,3.8,95.8,M,47.6,M,0.0,0000*48
$GPVTG,,T,,M,0.000000,N,0.000000,K*4E
$GPGGA,174312.862,5109.4069,N,00641.6923,E,1,05,3.8,95.6,M,47.6,M,0.0,0000*46
$GPVTG,,T,,M,0.000000,N,0.000000,K*4E
$GPGGA,174313.862,5109.4069,N,00641.6924,E,1,05,3.8,95.4,M,47.6,M,0.0,0000*42
$GPVTG,,T,,M,0.000000,N,0.000000,K*4E
$GPGGA,174314.862,5109.4070,N,00641.6924,E,1,05,3.8,95.2,M,47.6,M,0.0,0000*4B
$GPVTG,,T,,M,0.000000,N,0.000000,K*4E
$GPGGA,174315.862,5109.4070,N,00641.6925,E,1,05,3.8,95.1,M,47.6,M,0.0,0000*48
$GPVTG,,T,,M,0.000000,N,0.000000,K*4E
$GPGGA,174316.862,5109.4071,N,00641.6925,E,1,05,3.8,95.0,M,47.6,M,0.0,0000*4B
$GPVTG,,T,,M,0.000000,N,0.000000,K*4E
$GPGGA,174317.862,5109.4071,N,00641.6926,E,1,05,3.8,94.9,M,47.6,M,0.0,0000*41
$GPVTG,,T,,M,0.000000,N,0.000000,K*4E
$GPGGA,174318.862,5109.4071,N,00641.6925,E,1,05,3.8,94.9,M,47.6,M,0.0,0000*4D
$GPVTG,,T,,M,0.000000,N,0.000000,K*4E
$GPGGA,174319.862,5109.4070,N,00641.6924,E,1,05,3.8,95.1,M,47.6,M,0.0,0000*45
$GPVTG,,T,,M,0.000000,N,0.000000,K*4E
$GPGGA,174320.862,5109.4069,N,00641.6923,E,1,05,3.8,95.3,M,47.6,M,0.0,0000*42
$GPVTG,,T,,M,0.000000,N,0.000000,K*4E
$GPGGA,174321.862,5109.4068,N,00641.6921,E,1,05,3.8,95.6,M,47.6,M,0.0,0000*45
$GPVTG,,T,,M,0.000000,N,0.000000,K*4E
$GPGGA,174322.862,5109.4068,N,00641.6920,E,1,05,3.8,95.8,M,47.6,M,0.0,0000*49
$GPVTG,,T,,M,0.000000,N,0.000000,K*4E
$GPGGA,174323.862,5109.4067,N,00641.6919,E,1,05,3.8,96.1,M,47.6,M,0.0,0000*47
$GPVTG,,T,,M,0.000000,N,0.000000,K*4E
$GPGGA,174324.862,5109.4066,N,00641.6918,E,1,05,3.8,96.4,M,47.6,M,0.0,0000*45
$GPVTG,,T,,M,0.000000,N,0.000000,K*4E
$GPGGA,174325.861,5109.4066,N,00641.6916,E,1,05,3.8,96.7,M,47.6,M,0.0,0000*4A
$GPVTG,,T,,M,0.000000,N,0.000000,K*4E
$GPGGA,174326.861,5109.4065,N,00641.6916,E,1,05,3.8,97.0,M,47.6,M,0.0,0000*4C
$GPVTG,,T,,M,0.000000,N,0.000000,K*4E
$GPGGA,174327.861,5109.4065,N,00641.6915,E,1,05,3.8,97.3,M,47.6,M,0.0,0000*4D
$GPVTG,,T,,M,0.000000,N,0.000000,K*4E
$GPGGA,174328.861,5109.4064,N,00641.6915,E,1,05,3.8,97.5,M,47.6,M,0.0,0000*45
$GPVTG,,T,,M,0.000000,N,0.000000,K*4E
$GPGGA,174329.861,5109.4064,N,00641.6915,E,1,05,3.8,97.6,M,47.6,M,0.0,0000*47
$GPVTG,,T,,M,0.000000,N,0.000000,K*4E
$GPGGA,174330.861,5109.4065,N,00641.6916,E,1,05,3.8,97.6,M,47.6,M,0.0,0000*4D
$GPVTG,,T,,M,0.000000,N,0.000000,K*4E
$GPGGA,174331.861,5109.4065,N,00641.6917,E,1,05,3.8,97.6,M,47.6,M,0.0,0000*4D
$GPVTG,,T,,M,0.000000,N,0.000000,K*4E
$GPGGA,174332.861,5109.4066,N,00641.6918,E,1,05,3.8,97.5,M,47.6,M,0.0,0000*41
$GPVTG,,T,,M,0.000000,N,0.000000,K*4E
$GPGGA,174333.861,5109.4067,N,00641.6920,E,1,05,3.8,97.3,M,47.6,M,0.0,0000*4C
$GPVTG,,T,,M,0.000000,N,0.000000,K*4E
$GPGGA,174334.861,5109.4067,N,00641.6922,E,1,05,3.8,97.0,M,47.6,M,0.0,0000*4A
$GPVTG,,T,,M,0.000000,N,0.000000,K*4E
$GPGGA,174335.861,5109.4068,N,00641.6923,E,1,05,3.8,96.8,M,47.6,M,0.0,0000*4C
$GPVTG,,T,,M,0.000000,N,0.000000,K*4E
$GPGGA,174336.861,5109.4069,N,00641.6925,E,1,05,3.8,96.5,M,47.6,M,0.0,0000*45
$GPVTG,,T,,M,0.000000,N,0.000000,K*4E
$GPGGA,174337.861,5109.4069,N,00641.6926,E,1,05,3.8,96.3,M,47.6,M,0.0,0000*41
$GPVTG,,T,,M,0.000000,N,0.000000,K*4E
$GPGGA,174338.861,5109.4070,N,00641.6927,E,1,05,3.8,95.9,M,47.6,M,0.0,0000*4E
$GPVTG,,T,,M,0.000000,N,0.000000,K*4E
$GPGGA,174339.861,5109.4071,N,00641.6929,E,1,05,3.8,95.6,M,47.6,M,0.0,0000*4F
$GPVTG,,T,,M,0.000000,N,0.000000,K*4E
$GPGGA,174340.861,5109.4072,N,00641.6931,E,1,05,3.8,95.2,M,47.6,M,0.0,0000*4F
$GPVTG,,T,,M,0.000000,N,0.000000,K*4E
$GPGGA,174341.861,5109.4073,N,00641.6933,E,1,05,3.8,94.8,M,47.6,M,0.0,0000*46
$GPVTG,,T,,M,0.000000,N,0.000000,K*4E
$GPGGA,174342.860,5109.4074,N,00641.6935,E,1,05,3.8,94.5,M,47.6,M,0.0,0000*48
$GPVTG,,T,,M,0.000000,N,0.000000,K*4E
$GPGGA,174343.860,5109.4075,N,00641.6938,E,1,05,3.8,94.2,M,47.6,M,0.0,0000*42
$GPVTG,,T,,M,0.000000,N,0.000000,K*4E
$GPGGA,174344.860,5109.4076,N,00641.6940,E,1,05,3.8,93.9,M,47.6,M,0.0,0000*45
$GPVTG,,T,,M,0.000000,N,0.000000,K*4E
$GPGGA,174345.860,5109.4077,N,00641.6942,E,1,05,3.8,93.7,M,47.6,M,0.0,0000*49
$GPVTG,,T,,M,0.000000,N,0.000000,K*4E
$GPGGA,174346.860,5109.4078,N,00641.6944,E,1,05,3.8,93.6,M,47.6,M,0.0,0000*42
$GPVTG,,T,,M,0.000000,N,0.000000,K*4E
$GPGGA,174347.860,5109.4078,N,00641.6945,E,1,05,3.8,93.4,M,47.6,M,0.0,0000*40
$GPVTG,,T,,M,0.000000,N,0.000000,K*4E
$GPGGA,174348.860,5109.4078,N,00641.6945,E,1,05,3.8,93.5,M,47.6,M,0.0,0000*4E
$GPVTG,,T,,M,0.000000,N,0.000000,K*4E
$GPGGA,174349.860,5109.4078,N,00641.6945,E,1,05,3.8,93.4,M,47.6,M,0.0,0000*4E
$GPVTG,,T,,M,0.000000,N,0.000000,K*4E
$GPGGA,174350.860,5109.4078,N,00641.6945,E,1,05,3.8,93.4,M,47.6,M,0.0,0000*46
$GPVTG,,T,,M,0.000000,N,0.000000,K*4E
$GPGGA,174351.860,5109.4078,N,00641.6945,E,1,05,3.8,93.4,M,47.6,M,0.0,0000*47
$GPVTG,,T,,M,0.000000,N,0.000000,K*4E
$GPGGA,174352.860,5109.4078,N,00641.6946,E,1,05,3.8,93.2,M,47.6,M,0.0,0000*41
$GPVTG,,T,,M,0.000000,N,0.000000,K*4E
$GPGGA,174353.860,5109.4079,N,00641.6946,E,1,05,3.8,93.0,M,47.6,M,0.0,0000*43
$GPVTG,,T,,M,0.000000,N,0.000000,K*4E
$GPGGA,174354.860,5109.4079,N,00641.6947,E,1,05,3.7,92.7,M,47.6,M,0.0,0000*4C
$GPVTG,,T,,M,0.000000,N,0.000000,K*4E
$GPGGA,174355.860,5109.4079,N,00641.6948,E,1,05,3.7,92.4,M,47.6,M,0.0,0000*41
$GPVTG,,T,,M,0.000000,N,0.000000,K*4E
$GPGGA,174356.860,5109.4080,N,00641.6949,E,1,05,3.7,92.0,M,47.6,M,0.0,0000*41
$GPVTG,,T,,M,0.000000,N,0.000000,K*4E
$GPGGA,174357.860,5109.4080,N,00641.6949,E,1,05,3.7,91.7,M,47.6,M,0.0,0000*44
$GPVTG,,T,,M,0.000000,N,0.000000,K*4E
$GPGGA,174358.859,5109.4080,N,00641.6949,E,1,05,3.7,91.6,M,47.6,M,0.0,0000*40
$GPVTG,,T,,M,0.000000,N,0.000000,K*4E
$GPGGA,174359.859,5109.4079,N,00641.6947,E,1,05,3.7,91.5,M,47.6,M,0.0,0000*4A
$GPVTG,,T,,M,0.000000,N,0.000000,K*4E
$GPGGA,174400.859,5109.4078,N,00641.6946,E,1,05,3.7,91.5,M,47.6,M,0.0,0000*41
$GPVTG,,T,,M,0.000000,N,0.000000,K*4E
$GPGGA,174401.859,5109.4077,N,00641.6944,E,1,05,3.7,91.6,M,47.6,M,0.0,0000*4E
$GPVTG,,T,,M,0.000000,N,0.000000,K*4E
$GPGGA,174402.859,5109.4076,N,00641.6941,E,1,05,3.7,91.9,M,47.6,M,0.0,0000*46
$GPVTG,,T,,M,0.000000,N,0.000000,K*4E
$GPGGA,174403.859,5109.4075,N,00641.6939,E,1,05,3.7,92.2,M,47.6,M,0.0,0000*43
$GPVTG,,T,,M,0.000000,N,0.000000,K*4E
$GPGGA,174404.859,5109.4074,N,00641.6937,E,1,05,3.7,92.6,M,47.6,M,0.0,0000*4F
$GPVTG,,T,,M,0.000000,N,0.000000,K*4E
$GPGGA,174405.859,5109.4072,N,00641.6935,E,1,05,3.7,93.0,M,47.6,M,0.0,0000*4D
$GPVTG,,T,,M,0.000000,N,0.000000,K*4E
$GPGGA,174406.859,5109.4071,N,00641.6934,E,1,05,3.7,93.4,M,47.6,M,0.0,0000*48
$GPVTG,,T,,M,0.000000,N,0.000000,K*4E
$GPGGA,174407.859,5109.4070,N,00641.6932,E,1,05,3.7,93.7,M,47.6,M,0.0,0000*4D
$GPVTG,,T,,M,0.000000,N,0.000000,K*4E
$GPGGA,174408.859,5109.4069,N,00641.6930,E,1,05,3.7,94.0,M,47.6,M,0.0,0000*48
$GPVTG,,T,,M,0.000000,N,0.000000,K*4E
$GPGGA,174409.859,5109.4068,N,00641.6929,E,1,05,3.7,94.3,M,47.6,M,0.0,0000*43
$GPVTG,,T,,M,0.000000,N,0.000000,K*4E
$GPGGA,174410.859,5109.4067,N,00641.6927,E,1,05,3.7,94.4,M,47.6,M,0.0,0000*4D
$GPVTG,,T,,M,0.000000,N,0.000000,K*4E
$GPGGA,174411.859,5109.4066,N,00641.6926,E,1,05,3.7,94.5,M,47.6,M,0.0,0000*4D
$GPVTG,,T,,M,0.000000,N,0.000000,K*4E
$GPGGA,174412.859,5109.4065,N,00641.6924,E,1,05,3.7,94.6,M,47.6,M,0.0,0000*4C
$GPVTG,,T,,M,0.000000,N,0.000000,K*4E
$GPGGA,174413.859,5109.4065,N,00641.6923,E,1,05,3.7,94.6,M,47.6,M,0.0,0000*4A
$GPVTG,,T,,M,0.000000,N,0.000000,K*4E
$GPGGA,174414.859,5109.4064,N,00641.6922,E,1,05,3.7,94.6,M,47.6,M,0.0,0000*4D
$GPVTG,,T,,M,0.000000,N,0.000000,K*4E
$GPGGA,174415.858,5109.4063,N,00641.6921,E,1,05,3.7,94.6,M,47.6,M,0.0,0000*49
$GPVTG,,T,,M,0.000000,N,0.000000,K*4E
$GPGGA,174416.858,5109.4063,N,00641.6920,E,1,05,3.7,94.7,M,47.6,M,0.0,0000*4A
$GPVTG,,T,,M,0.000000,N,0.000000,K*4E
$GPGGA,174417.858,5109.4062,N,00641.6919,E,1,05,3.7,94.7,M,47.6,M,0.0,0000*40
$GPVTG,,T,,M,0.000000,N,0.000000,K*4E
$GPGGA,174418.858,5109.4062,N,00641.6918,E,1,05,3.7,94.9,M,47.6,M,0.0,0000*40
$GPVTG,,T,,M,0.000000,N,0.000000,K*4E
$GPGGA,174419.858,5109.4062,N,00641.6918,E,1,05,3.7,94.9,M,47.6,M,0.0,0000*41
$GPVTG,,T,,M,0.000000,N,0.000000,K*4E
$GPGGA,174420.858,5109.4062,N,00641.6918,E,1,05,3.7,95.1,M,47.6,M,0.0,0000*42
$GPVTG,,T,,M,0.000000,N,0.000000,K*4E
$GPGGA,174421.858,5109.4062,N,00641.6918,E,1,05,3.7,95.2,M,47.6,M,0.0,0000*40
$GPVTG,,T,,M,0.000000,N,0.000000,K*4E
$GPGGA,174422.858,5109.4062,N,00641.6919,E,1,05,3.7,95.2,M,47.6,M,0.0,0000*42
$GPVTG,,T,,M,0.000000,N,0.000000,K*4E
$GPGGA,174423.858,5109.4062,N,00641.6919,E,1,05,3.7,95.3,M,47.6,M,0.0,0000*42
$GPVTG,,T,,M,0.000000,N,0.000000,K*4E
$GPGGA,174424.858,5109.4061,N,00641.6919,E,1,05,3.7,95.4,M,47.6,M,0.0,0000*41
$GPVTG,,T,,M,0.000000,N,0.000000,K*4E
$GPGGA,174425.858,5109.4061,N,00641.6918,E,1,05,3.7,95.5,M,47.6,M,0.0,0000*40
$GPVTG,,T,,M,0.000000,N,0.000000,K*4E
$GPGGA,174426.858,5109.4061,N,00641.6917,E,1,05,3.7,95.7,M,47.6,M,0.0,0000*4E
$GPVTG,,T,,M,0.000000,N,0.000000,K*4E
$GPGGA,174427.858,5109.4060,N,00641.6917,E,1,05,3.7,95.8,M,47.6,M,0.0,0000*41
$GPVTG,,T,,M,0.000000,N,0.000000,K*4E
$GPGGA,174428.858,5109.4060,N,00641.6917,E,1,05,3.7,95.8,M,47.6,M,0.0,0000*4E
$GPVTG,,T,,M,0.000000,N,0.000000,K*4E
$GPGGA,174429.858,5109.4060,N,00641.6917,E,1,05,3.7,95.8,M,47.6,M,0.0,0000*4F
$GPVTG,,T,,M,0.000000,N,0.000000,K*4E
$GPGGA,174430.858,5109.4060,N,00641.6918,E,1,05,3.7,95.7,M,47.6,M,0.0,0000*47
$GPVTG,,T,,M,0.000000,N,0.000000,K*4E
$GPGGA,174431.857,5109.4061,N,00641.6919,E,1,05,3.7,95.6,M,47.6,M,0.0,0000*48
$GPVTG,,T,,M,0.000000,N,0.000000,K*4E
$GPGGA,174432.857,5109.4061,N,00641.6920,E,1,05,3.7,95.5,M,47.6,M,0.0,0000*42
$GPVTG,,T,,M,0.000000,N,0.000000,K*4E
$GPGGA,174433.857,5109.4062,N,00641.6921,E,1,05,3.7,95.4,M,47.6,M,0.0,0000*40
$GPVTG,,T,,M,0.000000,N,0.000000,K*4E
$GPGGA,174434.857,5109.4062,N,00641.6923,E,1,05,3.7,95.3,M,47.6,M,0.0,0000*42
$GPVTG,,T,,M,0.000000,N,0.000000,K*4E
$GPGGA,174435.857,5109.4063,N,00641.6926,E,1,05,3.7,95.3,M,47.6,M,0.0,0000*47
$GPVTG,,T,,M,0.000000,N,0.000000,K*4E
$GPGGA,174436.857,5109.4064,N,00641.6929,E,1,05,3.7,95.2,M,47.6,M,0.0,0000*4D
$GPVTG,,T,,M,0.000000,N,0.000000,K*4E
$GPGGA,174437.857,5109.4065,N,00641.6931,E,1,05,3.7,95.1,M,47.6,M,0.0,0000*47
$GPVTG,,T,,M,0.000000,N,0.000000,K*4E
$GPGGA,174438.857,5109.4066,N,00641.6933,E,1,05,3.7,94.9,M,47.6,M,0.0,0000*40
$GPVTG,,T,,M,0.000000,N,0.000000,K*4E
$GPGGA,174439.857,5109.4067,N,00641.6935,E,1,05,3.7,94.7,M,47.6,M,0.0,0000*48
$GPVTG,,T,,M,0.000000,N,0.000000,K*4E
$GPGGA,174440.857,5109.4068,N,00641.6937,E,1,05,3.7,94.4,M,47.6,M,0.0,0000*48
$GPVTG,,T,,M,0.000000,N,0.000000,K*4E
$GPGGA,174441.857,5109.4069,N,00641.6939,E,1,05,3.7,94.0,M,47.6,M,0.0,0000*42
$GPVTG,,T,,M,0.000000,N,0.000000,K*4E
$GPGGA,174442.857,5109.4070,N,00641.6941,E,1,05,3.7,93.7,M,47.6,M,0.0,0000*46
$GPVTG,,T,,M,0.000000,N,0.000000,K*4E
$GPGGA,174443.857,5109.4071,N,00641.6943,E,1,05,3.7,93.3,M,47.6,M,0.0,0000*40
$GPVTG,,T,,M,0.000000,N,0.000000,K*4E
$GPGGA,174444.857,5109.4071,N,00641.6944,E,1,05,3.7,93.0,M,47.6,M,0.0,0000*43
$GPVTG,,T,,M,0.000000,N,0.000000,K*4E
$GPGGA,174445.857,5109.4072,N,00641.6945,E,1,05,3.7,92.8,M,47.6,M,0.0,0000*49
$GPVTG,,T,,M,0.000000,N,0.000000,K*4E
$GPGGA,174446.857,5109.4072,N,00641.6946,E,1,05,3.7,92.6,M,47.6,M,0.0,0000*47
$GPVTG,,T,,M,0.000000,N,0.000000,K*4E
$GPGGA,174447.857,5109.4072,N,00641.6946,E,1,05,3.7,92.4,M,47.6,M,0.0,0000*44
$GPVTG,,T,,M,0.000000,N,0.000000,K*4E
$GPGGA,174448.856,5109.4071,N,00641.6945,E,1,05,3.7,92.3,M,47.6,M,0.0,0000*4D
$GPVTG,,T,,M,0.000000,N,0.000000,K*4E
$GPGGA,174449.856,5109.4071,N,00641.6945,E,1,05,3.7,92.2,M,47.6,M,0.0,0000*4D
$GPVTG,,T,,M,0.000000,N,0.000000,K*4E
$GPGGA,174450.856,5109.4071,N,00641.6945,E,1,05,3.7,92.0,M,47.6,M,0.0,0000*47
$GPVTG,,T,,M,0.000000,N,0.000000,K*4E
$GPGGA,174451.856,5109.4071,N,00641.6945,E,1,05,3.7,92.0,M,47.6,M,0.0,0000*46
$GPVTG,,T,,M,0.000000,N,0.000000,K*4E
$GPGGA,174452.856,5109.4071,N,00641.6944,E,1,05,3.7,91.9,M,47.6,M,0.0,0000*4E
$GPVTG,,T,,M,0.000000,N,0.000000,K*4E
$GPGGA,174453.856,5109.4070,N,00641.6944,E,1,05,3.7,91.9,M,47.6,M,0.0,0000*4E
$GPVTG,,T,,M,0.000000,N,0.000000,K*4E
$GPGGA,174454.856,5109.4070,N,00641.6943,E,1,05,3.7,92.0,M,47.6,M,0.0,0000*44
$GPVTG,,T,,M,0.000000,N,0.000000,K*4E
$GPGGA,174455.856,5109.4069,N,00641.6942,E,1,05,3.7,92.1,M,47.6,M,0.0,0000*4D
$GPVTG,,T,,M,0.000000,N,0.000000,K*4E
$GPGGA,174456.856,5109.4069,N,00641.6940,E,1,05,3.7,92.3,M,47.6,M,0.0,0000*4E
$GPVTG,,T,,M,0.000000,N,0.000000,K*4E
$GPGGA,174457.856,5109.4069,N,00641.6940,E,1,05,3.7,92.4,M,47.6,M,0.0,0000*48
$GPVTG,,T,,M,0.000000,N,0.000000,K*4E
$GPGGA,174458.856,5109.4068,N,00641.6939,E,1,05,3.7,92.6,M,47.6,M,0.0,0000*4A
$GPVTG,,T,,M,0.000000,N,0.000000,K*4E
$GPGGA,174459.856,5109.4067,N,00641.6938,E,1,05,3.7,92.8,M,47.6,M,0.0,0000*4B
$GPVTG,,T,,M,0.000000,N,0.000000,K*4E
$GPGGA,174500.856,5109.4066,N,00641.6936,E,1,05,3.7,93.0,M,47.6,M,0.0,0000*40
$GPVTG,,T,,M,0.000000,N,0.000000,K*4E
$GPGGA,174501.856,5109.4066,N,00641.6935,E,1,05,3.7,93.1,M,47.6,M,0.0,0000*43
$GPVTG,,T,,M,0.000000,N,0.000000,K*4E
$GPGGA,174502.856,5109.4066,N,00641.6935,E,1,05,3.7,93.1,M,47.6,M,0.0,0000*40
$GPVTG,,T,,M,0.000000,N,0.000000,K*4E
$GPGGA,174503.856,5109.4066,N,00641.6936,E,1,05,3.7,93.0,M,47.6,M,0.0,0000*43
$GPVTG,,T,,M,0.000000,N,0.000000,K*4E
$GPGGA,174504.855,5109.4067,N,00641.6938,E,1,05,3.7,92.7,M,47.6,M,0.0,0000*4E
$GPVTG,,T,,M,0.000000,N,0.000000,K*4E
$GPGGA,174505.855,5109.4068,N,00641.6940,E,1,05,3.7,92.3,M,47.6,M,0.0,0000*4B
$GPVTG,,T,,M,0.000000,N,0.000000,K*4E
$GPGGA,174506.855,5109.4069,N,00641.6942,E,1,05,3.7,92.0,M,47.6,M,0.0,0000*48
$GPVTG,,T,,M,0.000000,N,0.000000,K*4E
$GPGGA,174507.855,5109.4070,N,00641.6944,E,1,05,3.7,91.7,M,47.6,M,0.0,0000*43
$GPVTG,,T,,M,0.000000,N,0.000000,K*4E
$GPGGA,174508.855,5109.4071,N,00641.6946,E,1,05,3.7,91.4,M,47.6,M,0.0,0000*4C
$GPVTG,,T,,M,0.000000,N,0.000000,K*4E
$GPGGA,174509.855,5109.4071,N,00641.6948,E,1,05,3.7,91.1,M,47.6,M,0.0,0000*46
$GPVTG,,T,,M,0.000000,N,0.000000,K*4E
$GPGGA,174510.855,5109.4072,N,00641.6949,E,1,05,3.7,90.9,M,47.6,M,0.0,0000*45
$GPVTG,,T,,M,0.000000,N,0.000000,K*4E
$GPGGA,174511.855,5109.4072,N,00641.6949,E,1,05,3.7,90.8,M,47.6,M,0.0,0000*45
$GPVTG,,T,,M,0.000000,N,0.000000,K*4E
$GPGGA,174512.855,5109.4071,N,00641.6948,E,1,05,3.7,90.7,M,47.6,M,0.0,0000*4B
$GPVTG,,T,,M,0.000000,N,0.000000,K*4E
$GPGGA,174513.855,5109.4070,N,00641.6946,E,1,05,3.7,90.9,M,47.6,M,0.0,0000*4B
$GPVTG,,T,,M,0.000000,N,0.000000,K*4E
$GPGGA,174514.855,5109.4069,N,00641.6943,E,1,05,3.7,91.1,M,47.6,M,0.0,0000*48
$GPVTG,,T,,M,0.000000,N,0.000000,K*4E
$GPGGA,174515.855,5109.4067,N,00641.6940,E,1,05,3.7,91.5,M,47.6,M,0.0,0000*40
$GPVTG,,T,,M,0.000000,N,0.000000,K*4E
$GPGGA,174516.855,5109.4065,N,00641.6936,E,1,05,3.7,92.0,M,47.6,M,0.0,0000*46
$GPVTG,,T,,M,0.000000,N,0.000000,K*4E
$GPGGA,174517.855,5109.4063,N,00641.6931,E,1,05,3.7,92.6,M,47.6,M,0.0,0000*40
$GPVTG,,T,,M,0.000000,N,0.000000,K*4E
$GPGGA,174518.855,5109.4061,N,00641.6927,E,1,05,3.7,93.3,M,47.6,M,0.0,0000*4E
$GPVTG,,T,,M,0.000000,N,0.000000,K*4E
$GPGGA,174519.855,5109.4059,N,00641.6924,E,1,04,9.9,93.9,M,47.6,M,0.0,0000*48
$GPVTG,,T,,M,0.000000,N,0.000000,K*4E
$GPGGA,174520.855,5109.4056,N,00641.6917,E,1,05,3.7,95.0,M,47.6,M,0.0,0000*47
$GPVTG,,T,,M,0.000000,N,0.000000,K*4E
$GPGGA,174521.854,5109.4054,N,00641.6912,E,1,05,3.7,95.7,M,47.6,M,0.0,0000*47
$GPVTG,,T,,M,0.000000,N,0.000000,K*4E
$GPGGA,174522.854,5109.4052,N,00641.6909,E,1,05,3.7,96.2,M,47.6,M,0.0,0000*4E
$GPVTG,,T,,M,0.000000,N,0.000000,K*4E
$GPGGA,174523.854,5109.4050,N,00641.6906,E,1,05,3.7,96.6,M,47.6,M,0.0,0000*46
$GPVTG,,T,,M,0.000000,N,0.000000,K*4E
$GPGGA,174524.854,5109.4049,N,00641.6905,E,1,05,3.7,97.0,M,47.6,M,0.0,0000*4D
$GPVTG,,T,,M,0.000000,N,0.000000,K*4E
$GPGGA,174525.854,5109.4049,N,00641.6904,E,1,05,3.7,97.2,M,47.6,M,0.0,0000*4F
$GPVTG,,T,,M,0.000000,N,0.000000,K*4E
$GPGGA,174526.854,5109.4048,N,00641.6903,E,1,05,3.7,97.3,M,47.6,M,0.0,0000*4B
$GPVTG,,T,,M,0.000000,N,0.000000,K*4E
$GPGGA,174527.854,5109.4047,N,00641.6902,E,1,05,3.7,97.4,M,47.6,M,0.0,0000*43
$GPVTG,,T,,M,0.000000,N,0.000000,K*4E
$GPGGA,174528.854,5109.4047,N,00641.6900,E,1,05,3.7,97.4,M,47.6,M,0.0,0000*4E
$GPVTG,,T,,M,0.000000,N,0.000000,K*4E
$GPGGA,174529.854,5109.4046,N,00641.6899,E,1,05,3.7,97.3,M,47.6,M,0.0,0000*48
$GPVTG,,T,,M,0.000000,N,0.000000,K*4E
$GPGGA,174530.854,5109.4045,N,00641.6898,E,1,05,3.7,97.3,M,47.6,M,0.0,0000*42
$GPVTG,,T,,M,0.000000,N,0.000000,K*4E
$GPGGA,174531.854,5109.4045,N,00641.6897,E,1,05,3.7,97.2,M,47.6,M,0.0,0000*4D
$GPVTG,,T,,M,0.000000,N,0.000000,K*4E
$GPGGA,174532.854,5109.4044,N,00641.6895,E,1,05,3.7,97.3,M,47.6,M,0.0,0000*4C
$GPVTG,,T,,M,0.000000,N,0.000000,K*4E
$GPGGA,174533.854,5109.4043,N,00641.6893,E,1,05,3.7,97.4,M,47.6,M,0.0,0000*4B
$GPVTG,,T,,M,0.000000,N,0.000000,K*4E
$GPGGA,174534.854,5109.4042,N,00641.6891,E,1,05,3.7,97.6,M,47.6,M,0.0,0000*4D
$GPVTG,,T,,M,0.000000,N,0.000000,K*4E
$GPGGA,174535.854,5109.4040,N,00641.6888,E,1,05,3.7,97.9,M,47.6,M,0.0,0000*49
$GPVTG,,T,,M,0.000000,N,0.000000,K*4E
$GPGGA,174536.854,5109.4039,N,00641.6885,E,1,05,3.7,98.3,M,47.6,M,0.0,0000*4C
$GPVTG,,T,,M,0.000000,N,0.000000,K*4E
$GPGGA,174537.853,5109.4037,N,00641.6882,E,1,05,3.7,98.7,M,47.6,M,0.0,0000*47
$GPVTG,,T,,M,0.000000,N,0.000000,K*4E
$GPGGA,174538.853,5109.4036,N,00641.6879,E,1,05,3.7,99.0,M,47.6,M,0.0,0000*4B
$GPVTG,,T,,M,0.000000,N,0.000000,K*4E
$GPGGA,174539.853,5109.4035,N,00641.6877,E,1,05,3.7,99.4,M,47.6,M,0.0,0000*43
$GPVTG,,T,,M,0.000000,N,0.000000,K*4E
$GPGGA,174540.853,5109.4034,N,00641.6875,E,1,05,3.7,99.6,M,47.6,M,0.0,0000*4C
$GPVTG,,T,,M,0.000000,N,0.000000,K*4E
$GPGGA,174541.853,5109.4033,N,00641.6874,E,1,05,3.7,99.9,M,47.6,M,0.0,0000*44
$GPVTG,,T,,M,0.000000,N,0.000000,K*4E
$GPGGA,174542.853,5109.4032,N,00641.6873,E,1,05,3.7,100.1,M,47.6,M,0.0,0000*78
$GPVTG,,T,,M,0.000000,N,0.000000,K*4E
$GPGGA,174543.853,5109.4032,N,00641.6872,E,1,05,3.7,100.3,M,47.6,M,0.0,0000*7A
$GPVTG,,T,,M,0.000000,N,0.000000,K*4E
$GPGGA,174544.853,5109.4031,N,00641.6872,E,1,05,3.7,100.4,M,47.6,M,0.0,0000*79
$GPVTG,,T,,M,0.000000,N,0.000000,K*4E
$GPGGA,174545.853,5109.4031,N,00641.6871,E,1,05,3.7,100.6,M,47.6,M,0.0,0000*79
$GPVTG,,T,,M,0.000000,N,0.000000,K*4E
$GPGGA,174546.853,5109.4031,N,00641.6872,E,1,05,3.7,100.6,M,47.6,M,0.0,0000*79
$GPVTG,,T,,M,0.000000,N,0.000000,K*4E
$GPGGA,174547.853,5109.4032,N,00641.6874,E,1,05,3.7,100.6,M,47.6,M,0.0,0000*7D
$GPVTG,,T,,M,0.000000,N,0.000000,K*4E
$GPGGA,174548.853,5109.4033,N,00641.6877,E,1,05,3.7,100.5,M,47.6,M,0.0,0000*73
$GPVTG,,T,,M,0.000000,N,0.000000,K*4E
$GPGGA,174549.853,5109.4035,N,00641.6880,E,1,05,3.7,100.2,M,47.6,M,0.0,0000*7B
$GPVTG,,T,,M,0.000000,N,0.000000,K*4E
$GPGGA,174550.853,5109.4036,N,00641.6882,E,1,05,3.6,100.0,M,47.6,M,0.0,0000*71
$GPVTG,,T,,M,0.000000,N,0.000000,K*4E
$GPGGA,174551.853,5109.4037,N,00641.6884,E,1,05,3.6,99.8,M,47.6,M,0.0,0000*4E
$GPVTG,,T,,M,0.000000,N,0.000000,K*4E
$GPGGA,174552.853,5109.4037,N,00641.6886,E,1,05,3.6,99.7,M,47.6,M,0.0,0000*40
$GPVTG,,T,,M,0.000000,N,0.000000,K*4E
$GPGGA,174553.853,5109.4038,N,00641.6887,E,1,05,3.6,99.6,M,47.6,M,0.0,0000*4E
$GPVTG,,T,,M,0.000000,N,0.000000,K*4E
$GPGGA,174554.852,5109.4039,N,00641.6889,E,1,05,3.6,99.5,M,47.6,M,0.0,0000*44
$GPVTG,,T,,M,0.000000,N,0.000000,K*4E
$GPGGA,174555.852,5109.4039,N,00641.6891,E,1,05,3.6,99.5,M,47.6,M,0.0,0000*4C
$GPVTG,,T,,M,0.000000,N,0.000000,K*4E
$GPGGA,174556.852,5109.4040,N,00641.6892,E,1,05,3.6,99.7,M,47.6,M,0.0,0000*40
$GPVTG,,T,,M,0.000000,N,0.000000,K*4E
$GPGGA,174557.852,5109.4040,N,00641.6894,E,1,05,3.6,99.8,M,47.6,M,0.0,0000*48
$GPVTG,,T,,M,0.000000,N,0.000000,K*4E
$GPGGA,174558.852,5109.4042,N,00641.6897,E,1,05,3.6,99.8,M,47.6,M,0.0,0000*46
$GPVTG,,T,,M,0.000000,N,0.000000,K*4E
$GPGGA,174559.852,5109.4043,N,00641.6901,E,1,05,3.6,99.5,M,47.6,M,0.0,0000*45
$GPVTG,,T,,M,0.000000,N,0.000000,K*4E
$GPGGA,174600.852,5109.4046,N,00641.6906,E,1,05,3.6,99.1,M,47.6,M,0.0,0000*4C
$GPVTG,,T,,M,0.000000,N,0.000000,K*4E
$GPGGA,174601.852,5109.4048,N,00641.6911,E,1,05,3.6,98.5,M,47.6,M,0.0,0000*40
$GPVTG,,T,,M,0.000000,N,0.000000,K*4E
$GPGGA,174602.852,5109.4051,N,00641.6917,E,1,05,3.6,97.9,M,47.6,M,0.0,0000*4E
$GPVTG,,T,,M,0.000000,N,0.000000,K*4E
$GPGGA,174603.852,5109.4054,N,00641.6923,E,1,05,3.6,97.2,M,47.6,M,0.0,0000*46
$GPVTG,,T,,M,0.000000,N,0.000000,K*4E
$GPGGA,174604.852,5109.4057,N,00641.6929,E,1,05,3.6,96.4,M,47.6,M,0.0,0000*4F
$GPVTG,,T,,M,0.000000,N,0.000000,K*4E
$GPGGA,174605.852,5109.4059,N,00641.6934,E,1,05,3.6,95.6,M,47.6,M,0.0,0000*4D
$GPVTG,,T,,M,0.000000,N,0.000000,K*4E
$GPGGA,174606.852,5109.4062,N,00641.6939,E,1,05,3.6,94.8,M,47.6,M,0.0,0000*44
$GPVTG,,T,,M,0.000000,N,0.000000,K*4E
$GPGGA,174607.852,5109.4064,N,00641.6944,E,1,05,3.6,94.0,M,47.6,M,0.0,0000*41
$GPVTG,,T,,M,0.000000,N,0.000000,K*4E
$GPGGA,174608.852,5109.4067,N,00641.6950,E,1,05,3.6,93.1,M,47.6,M,0.0,0000*4E
$GPVTG,,T,,M,0.000000,N,0.000000,K*4E
$GPGGA,174609.852,5109.4070,N,00641.6956,E,1,05,3.6,92.1,M,47.6,M,0.0,0000*4E
$GPVTG,,T,,M,0.000000,N,0.000000,K*4E
$GPGGA,174610.851,5109.4073,N,00641.6962,E,1,05,3.6,91.0,M,47.6,M,0.0,0000*43
$GPVTG,,T,,M,0.000000,N,0.000000,K*4E
$GPGGA,174611.851,5109.4076,N,00641.6968,E,1,05,3.6,90.1,M,47.6,M,0.0,0000*4D
$GPVTG,,T,,M,0.000000,N,0.000000,K*4E
$GPGGA,174612.851,5109.4077,N,00641.6973,E,1,05,3.6,89.4,M,47.6,M,0.0,0000*48
$GPVTG,,T,,M,0.000000,N,0.000000,K*4E
$GPGGA,174613.851,5109.4078,N,00641.6976,E,1,05,3.6,88.9,M,47.6,M,0.0,0000*4F
$GPVTG,,T,,M,0.000000,N,0.000000,K*4E
$GPGGA,174614.851,5109.4079,N,00641.6978,E,1,05,3.6,88.4,M,47.6,M,0.0,0000*4A
$GPVTG,,T,,M,0.000000,N,0.000000,K*4E
$GPGGA,174615.851,5109.4080,N,00641.6979,E,1,05,3.6,88.1,M,47.6,M,0.0,0000*49
$GPVTG,,T,,M,0.000000,N,0.000000,K*4E
$GPGGA,174616.851,5109.4081,N,00641.6980,E,1,05,3.6,87.8,M,47.6,M,0.0,0000*4B
$GPVTG,,T,,M,0.000000,N,0.000000,K*4E
$GPGGA,174617.851,5109.4080,N,00641.6980,E,1,05,3.6,87.7,M,47.6,M,0.0,0000*44
$GPVTG,,T,,M,0.000000,N,0.000000,K*4E
$GPGGA,174618.851,5109.4080,N,00641.6980,E,1,05,3.6,87.7,M,47.6,M,0.0,0000*4B
$GPVTG,,T,,M,0.000000,N,0.000000,K*4E
$GPGGA,174619.851,5109.4080,N,00641.6979,E,1,05,3.6,87.6,M,47.6,M,0.0,0000*4D
$GPVTG,,T,,M,0.000000,N,0.000000,K*4E
$GPGGA,174620.851,5109.4079,N,00641.6979,E,1,05,3.6,87.4,M,47.6,M,0.0,0000*43
$GPVTG,,T,,M,0.000000,N,0.000000,K*4E
$GPGGA,174621.851,5109.4079,N,00641.6978,E,1,05,3.6,87.3,M,47.6,M,0.0,0000*44
$GPVTG,,T,,M,0.000000,N,0.000000,K*4E
$GPGGA,174622.851,5109.4079,N,00641.6978,E,1,05,3.6,87.2,M,47.6,M,0.0,0000*46
$GPVTG,,T,,M,0.000000,N,0.000000,K*4E
$GPGGA,174623.851,5109.4079,N,00641.6977,E,1,05,3.6,87.2,M,47.6,M,0.0,0000*48
$GPVTG,,T,,M,0.000000,N,0.000000,K*4E
$GPGGA,174624.851,5109.4078,N,00641.6976,E,1,05,3.6,87.3,M,47.6,M,0.0,0000*4E
$GPVTG,,T,,M,0.000000,N,0.000000,K*4E
$GPGGA,174625.851,5109.4078,N,00641.6974,E,1,05,3.6,87.4,M,47.6,M,0.0,0000*4A
$GPVTG,,T,,M,0.000000,N,0.000000,K*4E
$GPGGA,174626.851,5109.4077,N,00641.6974,E,1,05,3.6,87.4,M,47.6,M,0.0,0000*46
$GPVTG,,T,,M,0.000000,N,0.000000,K*4E
$GPGGA,174627.850,5109.4077,N,00641.6972,E,1,05,3.6,87.5,M,47.6,M,0.0,0000*41
$GPVTG,,T,,M,0.000000,N,0.000000,K*4E
$GPGGA,174628.850,5109.4076,N,00641.6971,E,1,05,3.6,87.5,M,47.6,M,0.0,0000*4C
$GPVTG,,T,,M,0.000000,N,0.000000,K*4E
$GPGGA,174629.850,5109.4076,N,00641.6970,E,1,05,3.6,87.4,M,47.6,M,0.0,0000*4D
$GPVTG,,T,,M,0.000000,N,0.000000,K*4E
$GPGGA,174630.850,5109.4076,N,00641.6970,E,1,05,3.6,87.3,M,47.6,M,0.0,0000*42
$GPVTG,,T,,M,0.000000,N,0.000000,K*4E
$GPGGA,174631.850,5109.4075,N,00641.6969,E,1,05,3.6,87.2,M,47.6,M,0.0,0000*49
$GPVTG,,T,,M,0.000000,N,0.000000,K*4E
$GPGGA,174632.850,5109.4075,N,00641.6968,E,1,05,3.6,87.0,M,47.6,M,0.0,0000*49
$GPVTG,,T,,M,0.000000,N,0.000000,K*4E
$GPGGA,174633.850,5109.4075,N,00641.6968,E,1,05,3.6,86.7,M,47.6,M,0.0,0000*4E
$GPVTG,,T,,M,0.000000,N,0.000000,K*4E
$GPGGA,174634.850,5109.4075,N,00641.6969,E,1,05,3.6,86.4,M,47.6,M,0.0,0000*4B
$GPVTG,,T,,M,0.000000,N,0.000000,K*4E
$GPGGA,174635.850,5109.4076,N,00641.6970,E,1,05,3.6,86.1,M,47.6,M,0.0,0000*44
$GPVTG,,T,,M,0.000000,N,0.000000,K*4E
$GPGGA,174636.850,5109.4077,N,00641.6971,E,1,05,3.6,85.7,M,47.6,M,0.0,0000*42
$GPVTG,,T,,M,0.000000,N,0.000000,K*4E
$GPGGA,174637.850,5109.4077,N,00641.6972,E,1,05,3.6,85.3,M,47.6,M,0.0,0000*44
$GPVTG,,T,,M,0.000000,N,0.000000,K*4E
$GPGGA,174638.850,5109.4078,N,00641.6973,E,1,05,3.6,85.0,M,47.6,M,0.0,0000*46
$GPVTG,,T,,M,0.000000,N,0.000000,K*4E
$GPGGA,174639.850,5109.4078,N,00641.6973,E,1,05,3.6,84.8,M,47.6,M,0.0,0000*4E
$GPVTG,,T,,M,0.000000,N,0.000000,K*4E
$GPGGA,174640.850,5109.4079,N,00641.6973,E,1,05,3.6,84.6,M,47.6,M,0.0,0000*4F
$GPVTG,,T,,M,0.000000,N,0.000000,K*4E
$GPGGA,174641.850,5109.4079,N,00641.6973,E,1,05,3.6,84.5,M,47.6,M,0.0,0000*4D
$GPVTG,,T,,M,0.000000,N,0.000000,K*4E
$GPGGA,174642.850,5109.4079,N,00641.6973,E,1,05,3.6,84.5,M,47.6,M,0.0,0000*4E
$GPVTG,,T,,M,0.000000,N,0.000000,K*4E
$GPGGA,174643.849,5109.4079,N,00641.6971,E,1,05,3.6,84.6,M,47.6,M,0.0,0000*46
$GPVTG,,T,,M,0.000000,N,0.000000,K*4E
$GPGGA,174644.849,5109.4078,N,00641.6970,E,1,05,3.6,84.8,M,47.6,M,0.0,0000*4F
$GPVTG,,T,,M,0.000000,N,0.000000,K*4E
$GPGGA,174645.849,5109.4078,N,00641.6969,E,1,05,3.6,84.9,M,47.6,M,0.0,0000*47
$GPVTG,,T,,M,0.000000,N,0.000000,K*4E
$GPGGA,174646.849,5109.4078,N,00641.6969,E,1,05,3.6,84.9,M,47.6,M,0.0,0000*44
$GPVTG,,T,,M,0.000000,N,0.000000,K*4E
$GPGGA,174647.849,5109.4078,N,00641.6968,E,1,05,3.6,85.0,M,47.6,M,0.0,0000*4C
$GPVTG,,T,,M,0.000000,N,0.000000,K*4E
$GPGGA,174648.849,5109.4077,N,00641.6967,E,1,05,3.6,85.1,M,47.6,M,0.0,0000*42
$GPVTG,,T,,M,0.000000,N,0.000000,K*4E
$GPGGA,174649.849,5109.4077,N,00641.6965,E,1,05,3.6,85.3,M,47.6,M,0.0,0000*43
$GPVTG,,T,,M,0.000000,N,0.000000,K*4E
$GPGGA,174650.849,5109.4076,N,00641.6963,E,1,05,3.6,85.5,M,47.6,M,0.0,0000*4A
$GPVTG,,T,,M,0.000000,N,0.000000,K*4E
$GPGGA,174651.849,5109.4076,N,00641.6962,E,1,05,3.6,85.7,M,47.6,M,0.0,0000*48
$GPVTG,,T,,M,0.000000,N,0.000000,K*4E
$GPGGA,174652.849,5109.4075,N,00641.6960,E,1,05,3.6,85.9,M,47.6,M,0.0,0000*44
$GPVTG,,T,,M,0.000000,N,0.000000,K*4E
$GPGGA,174653.849,5109.4075,N,00641.6958,E,1,05,3.6,86.2,M,47.6,M,0.0,0000*46
$GPVTG,,T,,M,0.000000,N,0.000000,K*4E
$GPGGA,174654.849,5109.4074,N,00641.6956,E,1,05,3.6,86.5,M,47.6,M,0.0,0000*49
$GPVTG,,T,,M,0.000000,N,0.000000,K*4E
$GPGGA,174655.849,5109.4073,N,00641.6954,E,1,05,3.6,86.7,M,47.6,M,0.0,0000*4F
$GPVTG,,T,,M,0.000000,N,0.000000,K*4E
$GPGGA,174656.849,5109.4073,N,00641.6952,E,1,05,3.6,87.0,M,47.6,M,0.0,0000*4C
$GPVTG,,T,,M,0.000000,N,0.000000,K*4E
$GPGGA,174657.849,5109.4072,N,00641.6950,E,1,05,3.6,87.1,M,47.6,M,0.0,0000*4F
$GPVTG,,T,,M,0.000000,N,0.000000,K*4E
$GPGGA,174658.849,5109.4072,N,00641.6948,E,1,05,3.6,87.2,M,47.6,M,0.0,0000*4A
$GPVTG,,T,,M,0.000000,N,0.000000,K*4E
$GPGGA,174659.849,5109.4072,N,00641.6947,E,1,05,3.6,87.2,M,47.6,M,0.0,0000*44
$GPVTG,,T,,M,0.000000,N,0.000000,K*4E
$GPGGA,174700.848,5109.4071,N,00641.6946,E,1,05,3.6,87.2,M,47.6,M,0.0,0000*4A
$GPVTG,,T,,M,0.000000,N,0.000000,K*4E
$GPGGA,174701.848,5109.4071,N,00641.6945,E,1,05,3.6,87.1,M,47.6,M,0.0,0000*4B
$GPVTG,,T,,M,0.000000,N,0.000000,K*4E
$GPGGA,174702.848,5109.4072,N,00641.6945,E,1,05,3.6,87.0,M,47.6,M,0.0,0000*4A
$GPVTG,,T,,M,0.000000,N,0.000000,K*4E
$GPGGA,174703.848,5109.4072,N,00641.6946,E,1,05,3.6,86.9,M,47.6,M,0.0,0000*40
$GPVTG,,T,,M,0.000000,N,0.000000,K*4E
$GPGGA,174704.848,5109.4073,N,00641.6946,E,1,05,3.6,86.9,M,47.6,M,0.0,0000*46
$GPVTG,,T,,M,0.000000,N,0.000000,K*4E
$GPGGA,174705.848,5109.4074,N,00641.6947,E,1,05,3.6,86.8,M,47.6,M,0.0,0000*40
$GPVTG,,T,,M,0.000000,N,0.000000,K*4E
$GPGGA,174706.848,5109.4074,N,00641.6947,E,1,05,3.6,86.8,M,47.6,M,0.0,0000*43
$GPVTG,,T,,M,0.000000,N,0.000000,K*4E
$GPGGA,174707.848,5109.4074,N,00641.6946,E,1,05,3.6,86.9,M,47.6,M,0.0,0000*42
$GPVTG,,T,,M,0.000000,N,0.000000,K*4E
$GPGGA,174708.848,5109.4074,N,00641.6946,E,1,05,3.6,86.9,M,47.6,M,0.0,0000*4D
$GPVTG,,T,,M,0.000000,N,0.000000,K*4E
$GPGGA,174709.848,5109.4074,N,00641.6946,E,1,05,3.6,87.0,M,47.6,M,0.0,0000*44
$GPVTG,,T,,M,0.000000,N,0.000000,K*4E
$GPGGA,174710.848,5109.4074,N,00641.6946,E,1,05,3.6,87.1,M,47.6,M,0.0,0000*4D
$GPVTG,,T,,M,0.000000,N,0.000000,K*4E
$GPGGA,174711.848,5109.4074,N,00641.6946,E,1,05,3.6,87.3,M,47.6,M,0.0,0000*4E
$GPVTG,,T,,M,0.000000,N,0.000000,K*4E
$GPGGA,174712.848,5109.4073,N,00641.6945,E,1,05,3.6,87.5,M,47.6,M,0.0,0000*4F
$GPVTG,,T,,M,0.000000,N,0.000000,K*4E
$GPGGA,174713.848,5109.4072,N,00641.6944,E,1,05,3.6,87.8,M,47.6,M,0.0,0000*43
$GPVTG,,T,,M,0.000000,N,0.000000,K*4E
$GPGGA,174714.848,5109.4072,N,00641.6942,E,1,05,3.6,88.0,M,47.6,M,0.0,0000*45
$GPVTG,,T,,M,0.000000,N,0.000000,K*4E
$GPGGA,174715.848,5109.4071,N,00641.6941,E,1,05,3.6,88.2,M,47.6,M,0.0,0000*46
$GPVTG,,T,,M,0.000000,N,0.000000,K*4E
$GPGGA,174716.847,5109.4070,N,00641.6939,E,1,05,3.6,88.4,M,47.6,M,0.0,0000*42
$GPVTG,,T,,M,0.000000,N,0.000000,K*4E
$GPGGA,174717.847,5109.4069,N,00641.6938,E,1,05,3.6,88.5,M,47.6,M,0.0,0000*4B
$GPVTG,,T,,M,0.000000,N,0.000000,K*4E
$GPGGA,174718.847,5109.4069,N,00641.6937,E,1,05,3.6,88.5,M,47.6,M,0.0,0000*4B
$GPVTG,,T,,M,0.000000,N,0.000000,K*4E
$GPGGA,174719.847,5109.4069,N,00641.6936,E,1,05,3.6,88.6,M,47.6,M,0.0,0000*48
