$GPRMC,211015.96,V,3854.928,N,07702.498,W,0.5,2.16,060416,,E*41
$GPGGA,211016.96,3854.928,N,07702.498,W,0,00,,,M,,M,,*65
$GPGLL,3854.928,N,07702.498,W,211017.96,V*04
$GPVTG,2.16,T,,M,0.5,N,1.0,K*51
$GPRMC,211019.96,V,3854.926,N,07702.498,W,6.5,2.15,060416,,E*46
$GPGGA,211020.96,3854.926,N,07702.498,W,0,00,,,M,,M,,*6E
$GPGLL,3854.926,N,07702.498,W,211021.96,V*0F
$GPVTG,2.15,T,,M,6.5,N,11.9,K*6C
$GPRMC,211023.96,V,3854.924,N,07702.498,W,15.2,2.12,060416,,E*7F
$GPGGA,211024.96,3854.924,N,07702.498,W,0,00,,,M,,M,,*68
$GPGLL,3854.924,N,07702.498,W,211025.96,V*09
$GPVTG,2.12,T,,M,15.2,N,28.1,K*5C
$GPRMC,211027.96,V,3854.923,N,07702.499,W,17.4,2.22,060416,,E*7A
$GPGGA,211028.96,3854.923,N,07702.499,W,0,00,,,M,,M,,*62
$GPGLL,3854.923,N,07702.499,W,211029.96,V*03
$GPVTG,2.22,T,,M,17.4,N,32.2,K*53
$GPRMC,211031.96,V,3854.921,N,07702.500,W,18.5,2.32,060416,,E*71
$GPGGA,211032.96,3854.921,N,07702.500,W,0,00,,,M,,M,,*6A
$GPGLL,3854.921,N,07702.500,W,211033.96,V*0B
$GPVTG,2.32,T,,M,18.5,N,34.2,K*5A
$GPRMC,211035.96,V,3854.920,N,07702.501,W,59.1,2.42,060416,,E*73
$GPGGA,211036.96,3854.920,N,07702.501,W,0,00,,,M,,M,,*6E
$GPGLL,3854.920,N,07702.501,W,211037.96,V*0F
$GPVTG,2.42,T,,M,59.1,N,109.4,K*65
$GPRMC,211039.96,V,3854.918,N,07702.502,W,64.0,2.41,060416,,E*7B
$GPGGA,211040.96,3854.918,N,07702.502,W,0,00,,,M,,M,,*67
$GPGLL,3854.918,N,07702.502,W,211041.96,V*06
$GPVTG,2.41,T,,M,64.0,N,118.5,K*68
$GPRMC,211043.96,V,3854.917,N,07702.503,W,72.6,2.34,060416,,E*7B
$GPGGA,211044.96,3854.917,N,07702.503,W,0,00,,,M,,M,,*6D
$GPGLL,3854.917,N,07702.503,W,211045.96,V*0C
$GPVTG,2.34,T,,M,72.6,N,134.5,K*65
$GPGSA,A,3,19,05,14,16,18,08,,,,,,,0.4,0.7,0.7*38
$GPGSV,2,1,06,19,56,120,41,05,57,110,88,14,83,336,25,16,30,327,82*71
$GPGSV,2,2,06,18,57,242,38,08,33,270,63*73
$GPRMC,211050.96,V,3854.915,N,07702.504,W,54.5,2.45,060416,,E*7D
$GPGGA,211051.96,3854.915,N,07702.504,W,0,04,0.7,,M,,M,,*41
$GPGLL,3854.915,N,07702.504,W,211052.96,V*0F
$GPVTG,2.45,T,,M,54.5,N,100.9,K*6F
$GPGSA,A,2,19,05,14,16,18,08,,,,,,,0.4,0.5,0.3*3F
$GPGSV,2,1,06,19,15,169,72,05,76,201,48,14,67,107,17,16,75,029,31*78
$GPGSV,2,2,06,18,87,160,55,08,15,273,49*79
$GPRMC,211057.96,V,3854.914,N,07702.505,W,89.5,2.38,060416,,E*70
$GPGGA,211058.96,3854.914,N,07702.505,W,0,04,0.5,,M,,M,,*4A
$GPGLL,3854.914,N,07702.505,W,211059.96,V*04
$GPVTG,2.38,T,,M,89.5,N,165.8,K*67
$GPGSA,A,3,19,05,14,16,18,08,,,,,,,0.5,0.0,0.1*38
$GPGSV,2,1,06,19,85,138,48,05,09,294,24,14,41,229,32,16,50,233,54*73
$GPGSV,2,2,06,18,41,284,31,08,75,263,15*76
$GPRMC,211104.96,V,3854.913,N,07702.506,W,62.0,2.48,060416,,E*74
$GPGGA,211105.96,3854.913,N,07702.506,W,0,04,0.0,,M,,M,,*42
$GPGLL,3854.913,N,07702.506,W,211106.96,V*0B
$GPVTG,2.48,T,,M,62.0,N,114.8,K*66
$GPRMC,211108.96,V,3854.911,N,07702.508,W,81.8,2.58,060416,,E*70
$GPGGA,211109.96,3854.911,N,07702.508,W,0,04,0.0,,M,,M,,*42
$GPGLL,3854.911,N,07702.508,W,211110.96,V*00
$GPVTG,2.58,T,,M,81.8,N,151.5,K*6E
$GPRMC,211112.96,V,3854.910,N,07702.509,W,76.3,2.56,060416,,E*76
$GPGGA,211113.96,3854.910,N,07702.509,W,0,04,0.0,,M,,M,,*49
$GPGLL,3854.910,N,07702.509,W,211114.96,V*04
$GPVTG,2.56,T,,M,76.3,N,141.4,K*63
$GPRMC,211116.96,V,3854.909,N,07702.511,W,97.7,2.55,060416,,E*7B
$GPGGA,211117.96,3854.909,N,07702.511,W,0,04,0.0,,M,,M,,*4C
$GPGLL,3854.909,N,07702.511,W,211118.96,V*09
$GPVTG,2.55,T,,M,97.7,N,181.0,K*63
$GPRMC,211120.96,V,3854.908,N,07702.512,W,29.0,2.55,060416,,E*7E
$GPGGA,211121.96,3854.908,N,07702.512,W,0,04,0.0,,M,,M,,*4B
$GPGLL,3854.908,N,07702.512,W,211122.96,V*02
$GPVTG,2.55,T,,M,29.0,N,53.8,K*57
$GPRMC,211124.96,V,3854.907,N,07702.513,W,41.6,2.58,060416,,E*71
$GPGGA,211125.96,3854.907,N,07702.513,W,0,04,0.0,,M,,M,,*41
$GPGLL,3854.907,N,07702.513,W,211126.96,V*08
$GPVTG,2.58,T,,M,41.6,N,77.1,K*5D
$GPRMC,211128.96,V,3854.906,N,07702.515,W,32.0,2.69,060416,,E*7A
$GPGGA,211129.96,3854.906,N,07702.515,W,0,04,0.0,,M,,M,,*4A
$GPGLL,3854.906,N,07702.515,W,211130.96,V*08
$GPVTG,2.69,T,,M,32.0,N,59.3,K*53
$GPRMC,211132.96,V,3854.905,N,07702.517,W,80.6,2.71,060416,,E*76
$GPGGA,211133.96,3854.905,N,07702.517,W,0,04,0.0,,M,,M,,*40
$GPGLL,3854.905,N,07702.517,W,211134.96,V*0D
$GPVTG,2.71,T,,M,80.6,N,149.2,K*64
$GPGSA,A,2,19,05,14,16,18,08,,,,,,,0.5,0.3,0.6*3D
$GPGSV,2,1,06,19,88,080,84,05,73,269,66,14,47,044,82,16,47,027,80*79
$GPGSV,2,2,06,18,78,029,82,08,43,037,52*74
$GPRMC,211139.96,V,3854.905,N,07702.518,W,91.1,2.77,060416,,E*73
$GPGGA,211140.96,3854.905,N,07702.518,W,0,04,0.3,,M,,M,,*48
$GPGLL,3854.905,N,07702.518,W,211141.96,V*00
$GPVTG,2.77,T,,M,91.1,N,168.7,K*63
$GPRMC,211143.96,V,3854.904,N,07702.520,W,12.8,2.85,060416,,E*7B
$GPGGA,211144.96,3854.904,N,07702.520,W,0,04,0.3,,M,,M,,*46
$GPGLL,3854.904,N,07702.520,W,211145.96,V*0E
$GPVTG,2.85,T,,M,12.8,N,23.8,K*5D
$GPRMC,211147.96,V,3854.904,N,07702.522,W,28.3,2.74,060416,,E*71
$GPGGA,211148.96,3854.904,N,07702.522,W,0,04,0.3,,M,,M,,*48
$GPGLL,3854.904,N,07702.522,W,211149.96,V*00
$GPVTG,2.74,T,,M,28.3,N,52.4,K*5B
$GPRMC,211151.96,V,3854.904,N,07702.523,W,57.1,3.16,060416,,E*78
$GPGGA,211152.96,3854.904,N,07702.523,W,0,04,0.3,,M,,M,,*42
$GPGLL,3854.904,N,07702.523,W,211153.96,V*0A
$GPVTG,3.16,T,,M,57.1,N,105.7,K*64
$GPGSA,A,3,19,05,14,16,18,08,,,,,,,0.7,0.5,0.5*3B
$GPGSV,2,1,06,19,78,173,57,05,62,316,65,14,46,347,89,16,64,014,51*78
$GPGSV,2,2,06,18,89,309,25,08,71,076,32*74
$GPRMC,211158.96,V,3854.905,N,07702.525,W,4.2,3.20,060416,,E*46
$GPGGA,211159.96,3854.905,N,07702.525,W,0,04,0.5,,M,,M,,*48
$GPGLL,3854.905,N,07702.525,W,211200.96,V*08
$GPVTG,3.20,T,,M,4.2,N,7.8,K*58
$GPRMC,211202.96,V,3854.905,N,07702.527,W,78.2,3.16,060416,,E*76
$GPGGA,211203.96,3854.905,N,07702.527,W,0,04,0.5,,M,,M,,*46
$GPGLL,3854.905,N,07702.527,W,211204.96,V*0E
$GPVTG,3.16,T,,M,78.2,N,144.8,K*60
$GPRMC,211206.96,V,3854.905,N,07702.529,W,55.3,3.07,060416,,E*72
$GPGGA,211207.96,3854.905,N,07702.529,W,0,04,0.5,,M,,M,,*4C
$GPGLL,3854.905,N,07702.529,W,211208.96,V*0C
$GPVTG,3.07,T,,M,55.3,N,102.5,K*61
$GPRMC,211210.96,V,3854.905,N,07702.531,W,12.7,2.97,060416,,E*73
$GPGGA,211211.96,3854.905,N,07702.531,W,0,04,0.5,,M,,M,,*42
$GPGLL,3854.905,N,07702.531,W,211212.96,V*0E
$GPVTG,2.97,T,,M,12.7,N,23.5,K*5C
$GPRMC,211214.96,V,3854.905,N,07702.532,W,62.9,3.01,060416,,E*73
$GPGGA,211215.96,3854.905,N,07702.532,W,0,04,0.5,,M,,M,,*45
$GPGLL,3854.905,N,07702.532,W,211216.96,V*09
$GPVTG,3.01,T,,M,62.9,N,116.4,K*6D
$GPGSA,A,2,19,05,14,16,18,08,,,,,,,0.6,0.5,0.8*36
$GPGSV,2,1,06,19,52,333,68,05,62,172,30,14,44,004,64,16,19,303,88*74
$GPGSV,2,2,06,18,10,237,75,08,83,180,80*71
$GPRMC,211221.96,V,3854.905,N,07702.534,W,50.3,2.96,060416,,E*77
$GPGGA,211222.96,3854.905,N,07702.534,W,0,04,0.5,,M,,M,,*47
$GPGLL,3854.905,N,07702.534,W,211223.96,V*09
$GPVTG,2.96,T,,M,50.3,N,93.2,K*53
$GPRMC,211225.96,V,3854.905,N,07702.536,W,35.1,2.90,060416,,E*76
$GPGGA,211226.96,3854.905,N,07702.536,W,0,04,0.5,,M,,M,,*41
$GPGLL,3854.905,N,07702.536,W,211227.96,V*0F
$GPVTG,2.90,T,,M,35.1,N,64.9,K*57
$GPRMC,211229.96,V,3854.905,N,07702.538,W,10.6,2.94,060416,,E*70
$GPGGA,211230.96,3854.905,N,07702.538,W,0,04,0.5,,M,,M,,*48
$GPGLL,3854.905,N,07702.538,W,211231.96,V*06
$GPVTG,2.94,T,,M,10.6,N,19.7,K*57
$GPRMC,211233.96,V,3854.904,N,07702.539,W,51.9,2.87,060416,,E*73
$GPGGA,211234.96,3854.904,N,07702.539,W,0,04,0.5,,M,,M,,*4C
$GPGLL,3854.904,N,07702.539,W,211235.96,V*02
$GPVTG,2.87,T,,M,51.9,N,96.2,K*5D
$GPRMC,211237.96,V,3854.904,N,07702.541,W,78.2,2.86,060416,,E*79
$GPGGA,211238.96,3854.904,N,07702.541,W,0,04,0.5,,M,,M,,*4F
$GPGLL,3854.904,N,07702.541,W,211239.96,V*01
$GPVTG,2.86,T,,M,78.2,N,144.8,K*68
$GPGSA,A,2,19,05,14,16,18,08,,,,,,,0.8,0.6,0.2*31
$GPGSV,2,1,06,19,22,306,80,05,67,129,19,14,36,232,67,16,51,047,27*78
$GPGSV,2,2,06,18,87,194,56,08,27,056,30*7B
$GPRMC,211244.96,V,3854.903,N,07702.543,W,1.9,2.76,060416,,E*42
$GPGGA,211245.96,3854.903,N,07702.543,W,0,04,0.6,,M,,M,,*43
$GPGLL,3854.903,N,07702.543,W,211246.96,V*0C
$GPVTG,2.76,T,,M,1.9,N,3.6,K*5E
$GPRMC,211248.96,V,3854.902,N,07702.545,W,85.1,2.75,060416,,E*7E
$GPGGA,211249.96,3854.902,N,07702.545,W,0,04,0.6,,M,,M,,*48
$GPGLL,3854.902,N,07702.545,W,211250.96,V*0C
$GPVTG,2.75,T,,M,85.1,N,157.6,K*69
$GPRMC,211252.96,V,3854.902,N,07702.546,W,73.8,2.71,060416,,E*72
$GPGGA,211253.96,3854.902,N,07702.546,W,0,04,0.6,,M,,M,,*40
$GPGLL,3854.902,N,07702.546,W,211254.96,V*0B
$GPVTG,2.71,T,,M,73.8,N,136.7,K*6B
$GPGSA,A,2,19,05,14,16,18,08,,,,,,,0.7,0.5,0.6*39
$GPGSV,2,1,06,19,83,008,32,05,43,132,75,14,09,346,82,16,71,034,54*76
$GPGSV,2,2,06,18,86,244,69,08,33,154,83*76
$GPRMC,211259.96,V,3854.901,N,07702.548,W,93.6,2.79,060416,,E*7C
$GPGGA,211300.96,3854.901,N,07702.548,W,0,04,0.5,,M,,M,,*49
$GPGLL,3854.901,N,07702.548,W,211301.96,V*07
$GPVTG,2.79,T,,M,93.6,N,173.3,K*66
$GPRMC,211303.96,V,3854.900,N,07702.549,W,30.9,2.70,060416,,E*7D
$GPGGA,211304.96,3854.900,N,07702.549,W,0,04,0.5,,M,,M,,*4D
$GPGLL,3854.900,N,07702.549,W,211305.96,V*03
$GPVTG,2.70,T,,M,30.9,N,57.2,K*5F
$GPRMC,211307.96,V,3854.899,N,07702.551,W,20.6,2.64,060416,,E*7A
$GPGGA,211308.96,3854.899,N,07702.551,W,0,04,0.5,,M,,M,,*49
$GPGLL,3854.899,N,07702.551,W,211309.96,V*07
$GPVTG,2.64,T,,M,20.6,N,38.1,K*5E
$GPRMC,211311.96,V,3854.898,N,07702.553,W,26.2,2.67,060416,,E*7F
$GPGGA,211312.96,3854.898,N,07702.553,W,0,04,0.5,,M,,M,,*41
$GPGLL,3854.898,N,07702.553,W,211313.96,V*0F
$GPVTG,2.67,T,,M,26.2,N,48.5,K*5C
$GPRMC,211315.96,V,3854.897,N,07702.554,W,40.1,2.64,060416,,E*73
$GPGGA,211316.96,3854.897,N,07702.554,W,0,04,0.5,,M,,M,,*4D
$GPGLL,3854.897,N,07702.554,W,211317.96,V*03
$GPVTG,2.64,T,,M,40.1,N,74.3,K*55
$GPGSA,A,2,19,05,14,16,18,08,,,,,,,0.6,0.9,0.1*33
$GPGSV,2,1,06,19,88,029,35,05,79,045,74,14,35,247,29,16,41,004,43*78
$GPGSV,2,2,06,18,76,165,83,08,32,039,58*70
$GPRMC,211322.96,V,3854.897,N,07702.556,W,54.4,2.77,060416,,E*77
$GPGGA,211323.96,3854.897,N,07702.556,W,0,04,0.9,,M,,M,,*45
$GPGLL,3854.897,N,07702.556,W,211324.96,V*01
$GPVTG,2.77,T,,M,54.4,N,100.8,K*6E
$GPRMC,211326.96,V,3854.896,N,07702.557,W,54.8,2.71,060416,,E*79
$GPGGA,211327.96,3854.896,N,07702.557,W,0,04,0.9,,M,,M,,*41
$GPGLL,3854.896,N,07702.557,W,211328.96,V*0D
$GPVTG,2.71,T,,M,54.8,N,101.6,K*6B
$GPRMC,211330.96,V,3854.895,N,07702.559,W,94.1,2.61,060416,,E*77
$GPGGA,211331.96,3854.895,N,07702.559,W,0,04,0.9,,M,,M,,*4B
$GPGLL,3854.895,N,07702.559,W,211332.96,V*0B
$GPVTG,2.61,T,,M,94.1,N,174.3,K*68
$GPRMC,211334.96,V,3854.894,N,07702.560,W,51.7,2.72,060416,,E*75
$GPGGA,211335.96,3854.894,N,07702.560,W,0,04,0.9,,M,,M,,*44
$GPGLL,3854.894,N,07702.560,W,211336.96,V*04
$GPVTG,2.72,T,,M,51.7,N,95.8,K*50
$GPRMC,211338.96,V,3854.894,N,07702.562,W,87.7,2.78,060416,,E*7A
$GPGGA,211339.96,3854.894,N,07702.562,W,0,04,0.9,,M,,M,,*4A
$GPGLL,3854.894,N,07702.562,W,211340.96,V*07
$GPVTG,2.78,T,,M,87.7,N,162.3,K*63
$GPRMC,211342.96,V,3854.893,N,07702.564,W,5.5,2.79,060416,,E*4F
$GPGGA,211343.96,3854.893,N,07702.564,W,0,04,0.9,,M,,M,,*46
$GPGLL,3854.893,N,07702.564,W,211344.96,V*02
$GPVTG,2.79,T,,M,5.5,N,10.1,K*6C
$GPRMC,211346.96,V,3854.893,N,07702.566,W,78.0,2.84,060416,,E*74
$GPGGA,211347.96,3854.893,N,07702.566,W,0,04,0.9,,M,,M,,*40
$GPGLL,3854.893,N,07702.566,W,211348.96,V*0C
$GPVTG,2.84,T,,M,78.0,N,144.5,K*65
$GPRMC,211350.96,V,3854.892,N,07702.567,W,4.3,2.93,060416,,E*4D
$GPGGA,211351.96,3854.892,N,07702.567,W,0,04,0.9,,M,,M,,*47
$GPGLL,3854.892,N,07702.567,W,211352.96,V*07
$GPVTG,2.93,T,,M,4.3,N,8.0,K*57
$GPRMC,211354.96,V,3854.892,N,07702.569,W,88.4,2.86,060416,,E*70
$GPGGA,211355.96,3854.892,N,07702.569,W,0,04,0.9,,M,,M,,*4D
$GPGLL,3854.892,N,07702.569,W,211356.96,V*0D
$GPVTG,2.86,T,,M,88.4,N,163.8,K*64
$GPRMC,211358.96,V,3854.892,N,07702.571,W,25.4,2.91,060416,,E*74
$GPGGA,211359.96,3854.892,N,07702.571,W,0,04,0.9,,M,,M,,*48
$GPGLL,3854.892,N,07702.571,W,211400.96,V*00
$GPVTG,2.91,T,,M,25.4,N,47.1,K*5B
