$GPGSV,3,1,10,02,,,17,05,33,300,30,07,52,026,15,08,14,071,16*47

$GPGSV,3,2,10,09,45,104,15,13,08,305,18,27,03,043,16,30,63,324,24*76

$GPGSV,3,3,10,23,14,115,,28,49,189,*7E

$GLGSV,2,1,06,66,61,319,17,67,09,330,25,77,23,247,,75,30,028,*6E

$GLGSV,2,2,06,65,54,163,,72,05,154,*65

$GPGGA,,,,,,0,,,,,,,,*66

$GNGNS,,,,,,NN,,,,,,*53

$GPVTG,,T,,M,,N,,K,N*2C

$GPRMC,,V,,,,,,,,,,N*53

$GPGSA,A,1,,,,,,,,,,,,,,,*1E

$GNGSA,A,1,,,,,,,,,,,,,,,*00

$GPGSV,3,1,10,02,22,156,,06,31,109,,12,35,289,,13,27,185,*7B

$GPGSV,3,2,10,15,39,233,,17,31,040,,19,61,049,,24,56,322,*71

$GPGSV,3,3,10,25,05,272,,28,09,068,*70

$GLGSV,2,1,07,78,54,016,,77,31,094,,79,26,326,,69,09,289,*6F

$GLGSV,2,2,07,88,66,060,,87,19,029,,68,05,243,*56

$GPGGA,,,,,,0,,,,,,,,*66

$GNGNS,,,,,,NN,,,,,,*53

$GPVTG,,T,,M,,N,,K,N*2C

$GPRMC,,V,,,,,,,,,,N*53

$GPGSA,A,1,,,,,,,,,,,,,,,*1E

$GNGSA,A,1,,,,,,,,,,,,,,,*00

$GPGSV,3,1,10,13,27,185,27,02,22,156,,06,31,109,,12,35,289,*7E

$GPGSV,3,2,10,15,39,233,,17,31,040,,19,61,049,,24,56,322,*71

$GPGSV,3,3,10,25,05,272,,28,09,068,*70

$GLGSV,2,1,07,78,54,016,,77,31,094,,79,26,326,,69,09,289,*6F

$GLGSV,2,2,07,88,66,060,,87,19,029,,68,05,243,*56

$GPGGA,,,,,,0,,,,,,,,*66

$GNGNS,,,,,,NN,,,,,,*53

$GPVTG,,T,,M,,N,,K,N*2C

$GPRMC,,V,,,,,,,,,,N*53

$GPGSA,A,1,,,,,,,,,,,,,,,*1E

$GNGSA,A,1,,,,,,,,,,,,,,,*00

$GPGSV,3,1,10,12,35,289,27,13,27,185,24,17,31,040,25,02,22,156,*73

$GPGSV,3,2,10,06,31,109,,15,39,233,,19,61,049,,24,56,322,*7D

$GPGSV,3,3,10,25,05,272,,28,09,068,*70

$GLGSV,2,1,07,78,54,016,,77,31,094,,79,26,326,,69,09,289,*6F

$GLGSV,2,2,07,88,66,060,,87,19,029,,68,05,243,*56

$GPGGA,,,,,,0,,,,,,,,*66

$GNGNS,,,,,,NN,,,,,,*53

$GPVTG,,T,,M,,N,,K,N*2C

$GPRMC,,V,,,,,,,,,,N*53

$GPGSA,A,1,,,,,,,,,,,,,,,*1E

$GNGSA,A,1,,,,,,,,,,,,,,,*00

$GPGSV,3,1,10,12,35,289,24,13,27,185,21,15,39,233,26,17,31,040,25*7D

$GPGSV,3,2,10,19,61,049,22,24,56,322,22,02,22,156,,06,31,109,*71

$GPGSV,3,3,10,25,05,272,,28,09,068,*70

$GLGSV,2,1,07,78,54,016,,77,31,094,,79,26,326,,69,09,289,*6F

$GLGSV,2,2,07,88,66,060,,87,19,029,,68,05,243,*56

$GPGGA,,,,,,0,,,,,,,,*66

$GNGNS,,,,,,NN,,,,,,*53

$GPVTG,,T,,M,,N,,K,N*2C

$GPRMC,,V,,,,,,,,,,N*53

$GPGSA,A,1,,,,,,,,,,,,,,,*1E

$GNGSA,A,1,,,,,,,,,,,,,,,*00

$GPGSV,3,1,10,12,35,289,24,13,27,185,21,15,39,233,26,17,31,040,25*7D

$GPGSV,3,2,10,19,61,049,22,24,56,322,22,02,22,156,,06,31,109,*71

$GPGSV,3,3,10,25,05,272,,28,09,068,*70

$GLGSV,2,1,07,78,54,016,,77,31,094,,79,26,326,,69,09,289,*6F

$GLGSV,2,2,07,88,66,060,,87,19,029,,68,05,243,*56

$GPGGA,,,,,,0,,,,,,,,*66

$GNGNS,,,,,,NN,,,,,,*53

$GPVTG,,T,,M,,N,,K,N*2C

$GPRMC,,V,,,,,,,,,,N*53

$GPGSA,A,1,,,,,,,,,,,,,,,*1E

$GNGSA,A,1,,,,,,,,,,,,,,,*00

$GPGSV,3,1,10,12,35,289,20,13,27,185,21,15,39,233,28,17,31,040,23*71

$GPGSV,3,2,10,19,61,049,23,24,56,322,25,02,22,156,,06,31,109,*77

$GPGSV,3,3,10,25,05,272,,28,09,068,*70

$GLGSV,2,1,07,78,54,016,,77,31,094,,79,26,326,,69,09,289,*6F

$GLGSV,2,2,07,88,66,060,,87,19,029,,68,05,243,*56

$GPGGA,,,,,,0,,,,,,,,*66

$GNGNS,,,,,,NN,,,,,,*53

$GPVTG,,T,,M,,N,,K,N*2C

$GPRMC,,V,,,,,,,,,,N*53

$GPGSA,A,1,,,,,,,,,,,,,,,*1E

$GNGSA,A,1,,,,,,,,,,,,,,,*00

$GPGSV,3,1,10,02,22,156,20,06,31,109,24,12,35,289,27,13,27,185,21*79

$GPGSV,3,2,10,15,39,233,27,17,31,040,18,19,61,049,28,24,56,322,18*7E

$GPGSV,3,3,10,25,05,272,,28,09,068,*70

$GLGSV,2,1,07,77,31,094,18,79,26,326,21,69,09,289,19,68,05,243,20*68

$GLGSV,2,2,07,78,54,016,,88,66,060,,87,19,029,*51

$GPGGA,142844.5,3206.093328,N,03511.757461,E,1,08,0.9,626.5,M,19.0,M,,*5C

$GNGNS,142844.5,3206.093328,N,03511.757461,E,AA,11,0.9,626.5,19.0,,*60

$GPVTG,329.4,T,326.4,M,14.6,N,27.0,K,A*2A

$GPRMC,142844.5,A,3206.093328,N,03511.757461,E,14.6,329.4,310316,3.0,E,A*31

$GPGSA,A,3,02,06,12,13,15,17,19,24,,,,,2.3,0.9,2.2*33

$GNGSA,A,3,02,06,12,13,15,17,19,24,,,,,2.3,0.9,2.2*2D

$GNGSA,A,3,77,69,68,,,,,,,,,,2.3,0.9,2.2*25

$GPGSV,3,1,10,02,22,156,20,06,31,109,25,12,35,289,27,13,27,185,18*72

$GPGSV,3,2,10,15,39,233,26,17,31,040,23,19,61,049,26,24,56,322,23*71

$GPGSV,3,3,10,25,05,272,18,28,09,068,17*7F

$GLGSV,2,1,07,77,31,094,18,79,26,326,20,69,09,289,18,87,19,029,21*6B

$GLGSV,2,2,07,68,05,243,20,78,54,016,,88,66,060,*51

$GPGGA,,,,,,0,,,,,,,,*66

$GNGNS,,,,,,NN,,,,,,*53

$GPVTG,,T,,M,,N,,K,N*2C

$GPRMC,,V,,,,,,,,,,N*53

$GPGSA,A,1,,,,,,,,,,,,,,,*1E

$GNGSA,A,1,,,,,,,,,,,,,,,*00

$GPGSV,3,1,10,13,27,185,29,15,38,233,27,02,22,156,,06,31,109,*7E

$GPGSV,3,2,10,12,35,291,,17,31,040,,19,61,049,,24,56,322,*72

$GPGSV,3,3,10,25,05,272,,28,09,068,*70

$GLGSV,2,1,07,78,54,016,,77,31,094,,79,26,326,,69,09,289,*6F

$GLGSV,2,2,07,88,66,060,,87,19,029,,68,05,241,*54

$GPGGA,,,,,,0,,,,,,,,*66

$GNGNS,,,,,,NN,,,,,,*53

$GPVTG,,T,,M,,N,,K,N*2C

$GPRMC,,V,,,,,,,,,,N*53

$GPGSA,A,1,,,,,,,,,,,,,,,*1E

$GNGSA,A,1,,,,,,,,,,,,,,,*00

$GPGSV,3,1,10,13,27,185,29,15,38,233,28,17,31,040,21,19,61,049,23*7D

$GPGSV,3,2,10,24,56,322,26,02,22,156,,06,31,109,,12,35,291,*78

$GPGSV,3,3,10,25,05,272,,28,09,068,*70

$GLGSV,2,1,07,78,54,016,,77,31,094,,79,26,326,,69,09,289,*6F

$GLGSV,2,2,07,88,66,060,,87,19,029,,68,05,241,*54

$GPGGA,,,,,,0,,,,,,,,*66

$GNGNS,,,,,,NN,,,,,,*53

$GPVTG,,T,,M,,N,,K,N*2C

$GPRMC,,V,,,,,,,,,,N*53

$GPGSA,A,1,,,,,,,,,,,,,,,*1E

$GNGSA,A,1,,,,,,,,,,,,,,,*00

$GPGSV,3,1,10,13,27,185,29,15,38,233,28,17,31,040,21,19,61,049,23*7D

$GPGSV,3,2,10,24,56,322,26,02,22,156,,06,31,109,,12,35,291,*78

$GPGSV,3,3,10,25,05,272,,28,09,068,*70

$GLGSV,2,1,07,78,54,016,,77,31,094,,79,26,326,,69,09,289,*6F

$GLGSV,2,2,07,88,66,060,,87,19,029,,68,05,241,*54

$GPGGA,,,,,,0,,,,,,,,*66

$GNGNS,,,,,,NN,,,,,,*53

$GPVTG,,T,,M,,N,,K,N*2C

$GPRMC,,V,,,,,,,,,,N*53

$GPGSA,A,1,,,,,,,,,,,,,,,*1E

$GNGSA,A,1,,,,,,,,,,,,,,,*00

$GPGSV,3,1,10,06,31,109,23,12,35,291,29,13,27,185,27,15,38,233,28*7A

$GPGSV,3,2,10,17,31,040,23,19,61,049,22,24,56,322,22,02,22,156,*7C

$GPGSV,3,3,10,25,05,272,,28,09,068,*70

$GLGSV,2,1,07,78,54,016,,77,31,094,,79,26,326,,69,09,289,*6F

$GLGSV,2,2,07,88,66,060,,87,19,029,,68,05,241,*54

$GPGGA,,,,,,0,,,,,,,,*66

$GNGNS,,,,,,NN,,,,,,*53

$GPVTG,,T,,M,,N,,K,N*2C

$GPRMC,,V,,,,,,,,,,N*53

$GPGSA,A,1,,,,,,,,,,,,,,,*1E

$GNGSA,A,1,,,,,,,,,,,,,,,*00

$GPGSV,3,1,10,02,22,156,16,06,31,109,27,12,35,291,29,13,27,185,23*7A

$GPGSV,3,2,10,15,38,233,27,17,31,040,23,19,61,049,21,24,56,322,25*70

$GPGSV,3,3,10,25,05,272,,28,09,068,*70

$GLGSV,2,1,07,78,54,016,,77,31,094,,79,26,326,,69,09,289,*6F

$GLGSV,2,2,07,88,66,060,,87,19,029,,68,05,241,*54

$GPGGA,142853.0,3206.103010,N,03511.695246,E,1,08,0.9,624.0,M,19.0,M,,*54

$GNGNS,142853.0,3206.103010,N,03511.695246,E,AN,08,0.9,624.0,19.0,,*6F

$GPVTG,299.5,T,296.5,M,28.2,N,52.3,K,A*20

$GPRMC,142853.0,A,3206.103010,N,03511.695246,E,28.2,299.5,310316,3.0,E,A*3E

$GPGSA,A,2,02,06,12,13,15,17,19,24,,,,,1.3,0.9,0.9*38

$GNGSA,A,2,02,06,12,13,15,17,19,24,,,,,1.3,0.9,0.9*26

$GNGSA,A,2,,,,,,,,,,,,,1.3,0.9,0.9*2F

$GPGSV,3,1,10,02,22,156,16,06,31,109,26,12,35,291,32,13,27,185,23*71

$GPGSV,3,2,10,15,38,233,26,17,31,040,24,19,61,049,21,24,56,322,27*74

$GPGSV,3,3,10,25,05,272,,28,09,068,*70

$GLGSV,2,1,07,87,19,029,26,68,05,241,18,78,54,016,,77,31,094,*6A

$GLGSV,2,2,07,79,26,326,,69,09,289,,88,66,060,*5C

$GPGGA,142854.0,3206.108128,N,03511.685452,E,1,08,0.8,632.7,M,19.0,M,,*51

$GNGNS,142854.0,3206.108128,N,03511.685452,E,AA,10,0.8,632.7,19.0,,*6C

$GPVTG,300.7,T,297.8,M,34.3,N,63.6,K,A*24

$GPRMC,142854.0,A,3206.108128,N,03511.685452,E,34.3,300.7,310316,3.0,E,A*35

$GPGSA,A,2,02,06,12,13,15,17,19,24,,,,,1.2,0.8,0.9*38

$GNGSA,A,2,02,06,12,13,15,17,19,24,,,,,1.2,0.8,0.9*26

$GNGSA,A,2,68,87,,,,,,,,,,,1.2,0.8,0.9*2E

$GPGSV,3,1,10,02,22,156,15,06,31,109,23,12,35,291,32,13,27,185,16*71

$GPGSV,3,2,10,15,38,233,26,17,31,040,26,19,61,049,23,24,56,322,24*77

$GPGSV,3,3,10,25,05,272,17,28,09,068,*76

$GLGSV,2,1,07,78,54,016,19,77,31,094,18,88,66,060,23,87,19,029,25*6A

$GLGSV,2,2,07,68,05,241,18,79,26,326,,69,09,289,*5F

$GPGGA,142855.0,3206.113647,N,03511.676986,E,1,09,0.7,634.4,M,19.0,M,,*57

$GNGNS,142855.0,3206.113647,N,03511.676986,E,AA,14,0.7,634.4,19.0,,*6F

$GPVTG,301.9,T,298.9,M,33.1,N,61.4,K,A*20

$GPRMC,142855.0,A,3206.113647,N,03511.676986,E,33.1,301.9,310316,3.0,E,A*32

$GPGSA,A,2,02,06,12,13,15,17,19,24,25,,,,1.1,0.7,0.8*32

$GNGSA,A,2,02,06,12,13,15,17,19,24,25,,,,1.1,0.7,0.8*2C

$GNGSA,A,2,68,77,78,87,88,,,,,,,,1.1,0.7,0.8*2C

$GPGSV,3,1,10,06,31,109,21,12,35,291,32,13,27,185,16,15,38,233,28*70

$GPGSV,3,2,10,17,31,040,28,19,61,049,22,24,56,322,24,25,05,272,18*7D

$GPGSV,3,3,10,28,09,068,16,02,22,156,*72

$GLGSV,2,1,07,78,54,016,19,77,31,094,17,88,66,060,21,87,19,029,21*63

$GLGSV,2,2,07,68,05,241,18,79,26,326,,69,09,289,*5F

$GPGGA,142856.0,3206.119771,N,03511.665281,E,1,10,0.7,628.6,M,19.0,M,,*53

$GNGNS,142856.0,3206.119771,N,03511.665281,E,AA,15,0.7,628.6,19.0,,*62

$GPVTG,301.2,T,298.2,M,36.7,N,68.0,K,A*2E

$GPRMC,142856.0,A,3206.119771,N,03511.665281,E,36.7,301.2,310316,3.0,E,A*39

$GPGSA,A,2,02,06,12,13,15,17,19,24,25,28,,,1.0,0.7,0.7*36

$GNGSA,A,2,02,06,12,13,15,17,19,24,25,28,,,1.0,0.7,0.7*28

$GNGSA,A,2,68,77,78,87,88,,,,,,,,1.0,0.7,0.7*22

$GPGSV,3,1,10,06,31,109,21,12,35,291,32,13,27,185,16,15,38,233,28*70

$GPGSV,3,2,10,17,31,040,27,19,61,049,23,24,56,322,26,25,05,272,19*70

$GPGSV,3,3,10,28,09,068,15,02,22,156,*71

$GLGSV,2,1,07,78,54,016,18,77,31,094,16,79,26,326,16,69,09,289,15*62

$GLGSV,2,2,07,88,66,060,21,87,19,029,18,68,05,241,18*57

$GPGGA,142857.0,3206.127082,N,03511.655026,E,1,10,0.7,627.7,M,19.0,M,,*56

$GNGNS,142857.0,3206.127082,N,03511.655026,E,AA,16,0.7,627.7,19.0,,*64

$GPVTG,301.7,T,298.8,M,39.2,N,72.5,K,A*25

$GPRMC,142857.0,A,3206.127082,N,03511.655026,E,39.2,301.7,310316,3.0,E,A*3D

$GPGSA,A,2,02,06,12,13,15,17,19,24,25,28,,,1.0,0.7,0.7*36

$GNGSA,A,2,02,06,12,13,15,17,19,24,25,28,,,1.0,0.7,0.7*28

$GNGSA,A,2,68,69,77,78,87,88,,,,,,,1.0,0.7,0.7*2D

$GPGSV,3,1,10,06,31,109,21,12,35,291,31,13,27,185,16,15,38,233,28*73

$GPGSV,3,2,10,17,31,040,29,19,61,049,27,24,56,322,29,25,05,272,19*75

$GPGSV,3,3,10,28,09,068,15,02,22,156,*71

$GLGSV,2,1,07,78,54,016,18,77,31,094,16,79,26,326,16,69,09,289,15*62

$GLGSV,2,2,07,88,66,060,22,87,19,029,23,68,05,241,18*5C

$GPGGA,142858.0,3206.135634,N,03511.640843,E,1,10,0.7,622.2,M,19.0,M,,*5E

$GNGNS,142858.0,3206.135634,N,03511.640843,E,AA,16,0.7,622.2,19.0,,*6C

$GPVTG,300.5,T,297.6,M,45.2,N,83.8,K,A*2F

$GPRMC,142858.0,A,3206.135634,N,03511.640843,E,45.2,300.5,310316,3.0,E,A*3D

$GPGSA,A,2,02,06,12,13,15,17,19,24,25,28,,,1.0,0.7,0.7*36

$GNGSA,A,2,02,06,12,13,15,17,19,24,25,28,,,1.0,0.7,0.7*28

$GNGSA,A,2,68,69,77,78,87,88,,,,,,,1.0,0.7,0.7*2D

$GPGSV,3,1,10,06,31,109,23,12,35,291,30,13,27,185,16,15,38,233,28*70

$GPGSV,3,2,10,17,31,040,28,19,61,049,27,24,56,322,30,25,05,272,19*7C

$GPGSV,3,3,10,28,09,068,15,02,22,156,*71

$GLGSV,2,1,07,78,54,016,18,77,31,094,15,79,26,326,15,69,09,289,15*62

$GLGSV,2,2,07,88,66,060,20,87,19,029,21,68,05,241,18*5C

$GPGGA,142859.0,3206.143296,N,03511.627614,E,1,10,0.7,619.5,M,19.0,M,,*50

$GNGNS,142859.0,3206.143296,N,03511.627614,E,AA,16,0.7,619.5,19.0,,*62

$GPVTG,300.1,T,297.1,M,47.7,N,88.3,K,A*2B

$GPRMC,142859.0,A,3206.143296,N,03511.627614,E,47.7,300.1,310316,3.0,E,A*3F

$GPGSA,A,2,02,06,12,13,15,17,19,24,25,28,,,1.0,0.7,0.7*36

$GNGSA,A,2,02,06,12,13,15,17,19,24,25,28,,,1.0,0.7,0.7*28

$GNGSA,A,2,68,69,77,78,87,88,,,,,,,1.0,0.7,0.7*2D

$GPGSV,3,1,10,06,31,109,26,12,35,291,27,13,27,185,16,15,38,233,28*73

$GPGSV,3,2,10,17,31,040,25,19,61,049,26,24,56,322,29,25,05,272,19*78

$GPGSV,3,3,10,28,09,068,14,02,22,156,*70

$GLGSV,2,1,07,78,54,016,18,77,31,094,14,79,26,326,15,69,09,289,15*63

$GLGSV,2,2,07,88,66,060,22,87,19,029,21,68,05,241,14*52

$GPGGA,142900.0,3206.149317,N,03511.614050,E,1,10,0.7,618.0,M,19.0,M,,*5D

$GNGNS,142900.0,3206.149317,N,03511.614050,E,AA,16,0.7,618.0,19.0,,*6F

$GPVTG,298.1,T,295.1,M,49.1,N,90.9,K,A*22

$GPRMC,142900.0,A,3206.149317,N,03511.614050,E,49.1,298.1,310316,3.0,E,A*3E

$GPGSA,A,2,02,06,12,13,15,17,19,24,25,28,,,1.0,0.7,0.7*36

$GNGSA,A,2,02,06,12,13,15,17,19,24,25,28,,,1.0,0.7,0.7*28

$GNGSA,A,2,68,69,77,78,87,88,,,,,,,1.0,0.7,0.7*2D

$GPGSV,3,1,10,06,31,109,28,12,35,291,26,13,27,185,16,15,38,233,28*7C

$GPGSV,3,2,10,17,31,040,27,19,61,049,26,24,56,322,31,25,05,272,19*73

$GPGSV,3,3,10,28,09,068,14,02,22,156,*70

$GLGSV,2,1,07,78,54,016,18,77,31,094,15,79,26,326,16,69,09,289,15*61

$GLGSV,2,2,07,88,66,060,23,87,19,029,21,68,05,241,15*52

$GPGGA,142901.0,3206.156006,N,03511.598291,E,1,10,0.7,614.6,M,19.0,M,,*53

$GNGNS,142901.0,3206.156006,N,03511.598291,E,AA,16,0.7,614.6,19.0,,*61

$GPVTG,295.9,T,292.9,M,50.8,N,94.1,K,A*25

$GPRMC,142901.0,A,3206.156006,N,03511.598291,E,50.8,295.9,310316,3.0,E,A*3E

$GPGSA,A,2,02,06,12,13,15,17,19,24,25,28,,,1.0,0.7,0.7*36

$GNGSA,A,2,02,06,12,13,15,17,19,24,25,28,,,1.0,0.7,0.7*28

$GNGSA,A,2,68,69,77,78,87,88,,,,,,,1.0,0.7,0.7*2D

$GPGSV,3,1,10,02,22,156,14,06,31,109,27,12,35,291,25,13,27,185,16*72

$GPGSV,3,2,10,15,38,233,26,17,31,040,26,19,61,049,25,24,56,322,31*75

$GPGSV,3,3,10,25,05,272,18,28,09,068,14*7C

$GLGSV,2,1,07,78,54,016,17,77,31,094,14,79,26,326,17,69,09,289,14*6F

$GLGSV,2,2,07,88,66,060,23,87,19,029,21,68,05,241,15*52

$GPGGA,142902.0,3206.162301,N,03511.582136,E,1,10,0.7,613.4,M,19.0,M,,*53

$GNGNS,142902.0,3206.162301,N,03511.582136,E,AA,16,0.7,613.4,19.0,,*61

$GPVTG,293.5,T,290.5,M,52.2,N,96.7,K,A*2D

$GPRMC,142902.0,A,3206.162301,N,03511.582136,E,52.2,293.5,310316,3.0,E,A*39

$GPGSA,A,2,02,06,12,13,15,17,19,24,25,28,,,1.0,0.7,0.7*36

$GNGSA,A,2,02,06,12,13,15,17,19,24,25,28,,,1.0,0.7,0.7*28

$GNGSA,A,2,68,69,77,78,87,88,,,,,,,1.0,0.7,0.7*2D

$GPGSV,3,1,10,02,22,156,13,06,31,109,27,12,35,291,26,13,27,185,26*75

$GPGSV,3,2,10,15,38,233,25,17,31,040,26,19,61,049,25,24,56,322,33*74

$GPGSV,3,3,10,25,05,272,18,28,09,068,14*7C

$GLGSV,2,1,07,78,54,016,18,77,31,094,13,79,26,326,17,69,09,289,14*67

$GLGSV,2,2,07,88,66,060,24,87,19,029,14,68,05,241,15*53

$GPGGA,142903.0,3206.167771,N,03511.565234,E,1,10,0.7,611.3,M,19.0,M,,*59

$GNGNS,142903.0,3206.167771,N,03511.565234,E,AA,16,0.7,611.3,19.0,,*6B

$GPVTG,291.8,T,288.8,M,53.3,N,98.8,K,A*27

$GPRMC,142903.0,A,3206.167771,N,03511.565234,E,53.3,291.8,310316,3.0,E,A*39

$GPGSA,A,2,02,06,12,13,15,17,19,24,25,28,,,1.0,0.7,0.7*36

$GNGSA,A,2,02,06,12,13,15,17,19,24,25,28,,,1.0,0.7,0.7*28

$GNGSA,A,2,68,69,77,78,87,88,,,,,,,1.0,0.7,0.7*2D

$GPGSV,3,1,10,02,22,156,13,06,31,109,24,12,35,291,26,13,27,185,30*71

$GPGSV,3,2,10,15,38,233,20,17,31,040,25,19,61,049,25,24,56,322,34*75

$GPGSV,3,3,10,25,05,272,18,28,09,068,14*7C

$GLGSV,2,1,07,78,54,016,22,77,31,094,13,79,26,326,17,69,09,289,14*6E

$GLGSV,2,2,07,88,66,060,25,87,19,029,23,68,05,241,16*55

$GPGGA,142904.0,3206.173633,N,03511.548655,E,1,10,0.7,607.7,M,19.0,M,,*53

$GNGNS,142904.0,3206.173633,N,03511.548655,E,AA,16,0.7,607.7,19.0,,*61

$GPVTG,291.2,T,288.2,M,53.1,N,98.3,K,A*2E

$GPRMC,142904.0,A,3206.173633,N,03511.548655,E,53.1,291.2,310316,3.0,E,A*38

$GPGSA,A,2,02,06,12,13,15,17,19,24,25,28,,,1.0,0.7,0.7*36

$GNGSA,A,2,02,06,12,13,15,17,19,24,25,28,,,1.0,0.7,0.7*28

$GNGSA,A,2,68,69,77,78,87,88,,,,,,,1.0,0.7,0.7*2D

$GPGSV,3,1,10,02,22,156,14,06,31,109,22,12,35,291,26,13,27,185,31*71

$GPGSV,3,2,10,15,38,233,17,17,31,040,19,19,61,049,25,24,56,322,34*7E

$GPGSV,3,3,10,25,05,272,18,28,09,068,16*7E

$GLGSV,2,1,07,78,54,016,23,77,31,094,13,79,26,326,17,69,09,289,14*6F

$GLGSV,2,2,07,88,66,060,24,87,19,029,22,68,05,241,16*55

$GPGGA,142905.0,3206.177166,N,03511.532377,E,1,10,0.7,606.7,M,19.0,M,,*58

$GNGNS,142905.0,3206.177166,N,03511.532377,E,AA,16,0.7,606.7,19.0,,*6A

$GPVTG,288.4,T,285.5,M,53.1,N,98.4,K,A*2D

$GPRMC,142905.0,A,3206.177166,N,03511.532377,E,53.1,288.4,310316,3.0,E,A*3C

$GPGSA,A,2,02,06,12,13,15,17,19,24,25,28,,,1.0,0.7,0.7*36

$GNGSA,A,2,02,06,12,13,15,17,19,24,25,28,,,1.0,0.7,0.7*28

$GNGSA,A,2,68,69,77,78,87,88,,,,,,,1.0,0.7,0.7*2D

$GPGSV,3,1,10,02,22,156,14,06,31,109,23,12,35,291,25,13,27,185,27*74

$GPGSV,3,2,10,15,38,233,22,17,31,040,18,19,61,049,24,24,56,322,32*7E

$GPGSV,3,3,10,25,05,272,18,28,09,068,16*7E

$GLGSV,2,1,07,78,54,016,23,77,31,094,11,79,26,326,17,69,09,289,14*6D

$GLGSV,2,2,07,88,66,060,23,87,19,029,22,68,05,241,16*52

$GPGGA,142906.0,3206.182675,N,03511.519366,E,1,10,0.7,604.6,M,19.0,M,,*5E

$GNGNS,142906.0,3206.182675,N,03511.519366,E,AA,16,0.7,604.6,19.0,,*6C

$GPVTG,290.1,T,287.1,M,48.8,N,90.4,K,A*2C

$GPRMC,142906.0,A,3206.182675,N,03511.519366,E,48.8,290.1,310316,3.0,E,A*36

$GPGSA,A,2,02,06,12,13,15,17,19,24,25,28,,,1.0,0.7,0.7*36

$GNGSA,A,2,02,06,12,13,15,17,19,24,25,28,,,1.0,0.7,0.7*28

$GNGSA,A,2,68,69,77,78,87,88,,,,,,,1.0,0.7,0.7*2D

$GPGSV,3,1,10,02,22,156,16,06,31,109,24,12,35,291,25,13,27,185,28*7E

$GPGSV,3,2,10,15,38,233,21,17,31,040,20,19,61,049,27,24,56,322,33*74

$GPGSV,3,3,10,25,05,272,14,28,09,068,16*72

$GLGSV,2,1,07,78,54,016,22,77,31,094,11,79,26,326,17,69,09,289,14*6C

$GLGSV,2,2,07,88,66,060,23,87,19,029,23,68,05,241,16*53

$GPGGA,142907.0,3206.185011,N,03511.501835,E,1,10,0.7,605.1,M,19.0,M,,*5E

$GNGNS,142907.0,3206.185011,N,03511.501835,E,AA,16,0.7,605.1,19.0,,*6C

$GPVTG,286.0,T,283.0,M,50.5,N,93.6,K,A*2A

$GPRMC,142907.0,A,3206.185011,N,03511.501835,E,50.5,286.0,310316,3.0,E,A*32

$GPGSA,A,2,02,06,12,13,15,17,19,24,25,28,,,1.0,0.7,0.7*36

$GNGSA,A,2,02,06,12,13,15,17,19,24,25,28,,,1.0,0.7,0.7*28

$GNGSA,A,2,68,69,77,78,87,88,,,,,,,1.0,0.7,0.7*2D

$GPGSV,3,1,10,02,22,156,25,06,31,109,21,12,35,291,29,13,27,185,26*79

$GPGSV,3,2,10,15,38,233,19,17,31,040,20,19,61,049,28,24,56,322,33*70

$GPGSV,3,3,10,25,05,272,14,28,09,068,*75

$GLGSV,2,1,07,78,54,016,23,77,31,094,11,79,26,326,17,69,09,289,14*6D

$GLGSV,2,2,07,88,66,060,26,87,19,029,22,68,05,241,20*52

$GPGGA,142908.0,3206.187162,N,03511.485240,E,1,10,0.7,605.4,M,19.0,M,,*56

$GNGNS,142908.0,3206.187162,N,03511.485240,E,AA,16,0.7,605.4,19.0,,*64

$GPVTG,284.6,T,281.6,M,50.4,N,93.4,K,A*29

$GPRMC,142908.0,A,3206.187162,N,03511.485240,E,50.4,284.6,310316,3.0,E,A*3A

$GPGSA,A,2,02,06,12,13,15,17,19,24,25,28,,,1.0,0.7,0.7*36

$GNGSA,A,2,02,06,12,13,15,17,19,24,25,28,,,1.0,0.7,0.7*28

$GNGSA,A,2,68,69,77,78,87,88,,,,,,,1.0,0.7,0.7*2D

$GPGSV,3,1,10,02,22,156,28,06,31,109,24,12,35,291,34,13,27,185,27*7C

$GPGSV,3,2,10,15,38,233,18,17,31,040,20,19,61,049,32,24,56,322,36*7F

$GPGSV,3,3,10,25,05,272,18,28,09,068,*79

$GLGSV,2,1,08,78,54,016,26,77,31,094,17,79,26,326,17,69,09,289,14*61

$GLGSV,2,2,08,88,66,060,26,87,19,029,28,,,,26,68,05,241,24*57

$GPGGA,142909.0,3206.191070,N,03511.469312,E,1,10,0.7,604.6,M,19.0,M,,*55

$GNGNS,142909.0,3206.191070,N,03511.469312,E,AA,16,0.7,604.6,19.0,,*67

$GPVTG,284.7,T,281.7,M,49.5,N,91.7,K,A*21

$GPRMC,142909.0,A,3206.191070,N,03511.469312,E,49.5,284.7,310316,3.0,E,A*32

$GPGSA,A,2,02,06,12,13,15,17,19,24,25,28,,,1.0,0.7,0.7*36

$GNGSA,A,2,02,06,12,13,15,17,19,24,25,28,,,1.0,0.7,0.7*28

$GNGSA,A,2,68,69,77,78,87,88,,,,,,,1.0,0.7,0.7*2D

$GPGSV,3,1,10,02,22,156,27,06,31,109,23,12,35,291,32,13,27,185,27*72

$GPGSV,3,2,10,15,38,233,23,17,31,040,21,19,61,049,31,24,56,322,36*75

$GPGSV,3,3,10,25,05,272,18,28,09,068,20*7B

$GLGSV,2,1,08,78,54,016,23,77,31,094,23,79,26,326,17,69,09,289,14*63

$GLGSV,2,2,08,88,66,060,26,87,19,029,26,,,,29,68,05,241,23*51

$GPGGA,142910.0,3206.193449,N,03511.454061,E,1,10,0.7,604.3,M,19.0,M,,*5D

$GNGNS,142910.0,3206.193449,N,03511.454061,E,AA,16,0.7,604.3,19.0,,*6F

$GPVTG,284.2,T,281.2,M,48.7,N,90.2,K,A*26

$GPRMC,142910.0,A,3206.193449,N,03511.454061,E,48.7,284.2,310316,3.0,E,A*39

$GPGSA,A,2,02,06,12,13,15,17,19,24,25,28,,,1.0,0.7,0.7*36

$GNGSA,A,2,02,06,12,13,15,17,19,24,25,28,,,1.0,0.7,0.7*28

$GNGSA,A,2,68,69,77,78,87,88,,,,,,,1.0,0.7,0.7*2D

$GPGSV,3,1,10,02,22,156,27,06,31,109,23,12,35,291,32,13,27,185,26*73

$GPGSV,3,2,10,15,38,233,25,17,31,040,23,19,61,049,30,24,56,322,35*73

$GPGSV,3,3,10,25,05,272,18,28,09,068,25*7E

$GLGSV,2,1,08,78,54,016,23,77,31,094,22,79,26,326,13,69,09,289,14*66

$GLGSV,2,2,08,88,66,060,26,87,19,029,22,,,,31,68,05,241,24*5B

$GPGGA,142911.0,3206.196393,N,03511.439106,E,1,10,0.7,603.4,M,19.0,M,,*52

$GNGNS,142911.0,3206.196393,N,03511.439106,E,AA,16,0.7,603.4,19.0,,*60

$GPVTG,283.8,T,280.9,M,48.4,N,89.6,K,A*2E

$GPRMC,142911.0,A,3206.196393,N,03511.439106,E,48.4,283.8,310316,3.0,E,A*38

$GPGSA,A,2,02,06,12,13,15,17,19,24,25,28,,,1.0,0.7,0.7*36

$GNGSA,A,2,02,06,12,13,15,17,19,24,25,28,,,1.0,0.7,0.7*28

$GNGSA,A,2,68,69,77,78,87,88,,,,,,,1.0,0.7,0.7*2D

$GPGSV,3,1,10,02,22,156,25,06,31,109,22,12,35,291,32,13,27,185,30*77

$GPGSV,3,2,10,15,38,233,26,17,31,040,22,19,61,049,31,24,56,322,35*70

$GPGSV,3,3,10,25,05,272,18,28,09,068,27*7C

$GLGSV,2,1,08,78,54,016,23,77,31,094,23,79,26,326,13,69,09,289,14*67

$GLGSV,2,2,08,88,66,060,26,87,19,029,30,,,,33,68,05,241,23*5D

$GPGGA,142912.0,3206.199047,N,03511.423842,E,1,10,0.7,605.4,M,19.0,M,,*50

$GNGNS,142912.0,3206.199047,N,03511.423842,E,AA,16,0.7,605.4,19.0,,*62

$GPVTG,282.8,T,279.8,M,48.0,N,88.9,K,A*22

$GPRMC,142912.0,A,3206.199047,N,03511.423842,E,48.0,282.8,310316,3.0,E,A*39

$GPGSA,A,2,02,06,12,13,15,17,19,24,25,28,,,1.0,0.7,0.7*36

$GNGSA,A,2,02,06,12,13,15,17,19,24,25,28,,,1.0,0.7,0.7*28

$GNGSA,A,2,68,69,77,78,87,88,,,,,,,1.0,0.7,0.7*2D

$GPGSV,3,1,10,02,22,156,23,06,31,109,23,12,35,291,31,13,27,185,28*7A

$GPGSV,3,2,10,15,38,233,27,17,31,040,24,19,61,049,30,24,56,322,34*77

$GPGSV,3,3,10,25,05,272,16,28,09,068,25*70

$GLGSV,2,1,08,78,54,016,24,77,31,094,21,79,26,326,13,69,09,289,14*62

$GLGSV,2,2,08,88,66,060,24,87,19,029,28,,,,32,68,05,241,22*56

$GPGGA,142913.0,3206.201701,N,03511.409364,E,1,10,0.7,605.4,M,19.0,M,,*51

$GNGNS,142913.0,3206.201701,N,03511.409364,E,AA,15,0.7,605.4,19.0,,*60

$GPVTG,282.1,T,279.1,M,47.2,N,87.4,K,A*2D

$GPRMC,142913.0,A,3206.201701,N,03511.409364,E,47.2,282.1,310316,3.0,E,A*3C

$GPGSA,A,2,02,06,12,13,15,17,19,24,25,28,,,1.0,0.7,0.7*36

$GNGSA,A,2,02,06,12,13,15,17,19,24,25,28,,,1.0,0.7,0.7*28

$GNGSA,A,2,68,77,78,87,88,,,,,,,,1.0,0.7,0.7*22

$GPGSV,3,1,10,02,22,156,20,06,31,109,22,12,35,291,23,13,27,185,29*7A

$GPGSV,3,2,10,15,38,233,23,17,31,040,24,19,61,049,30,24,56,322,29*7F

$GPGSV,3,3,10,25,05,272,16,28,09,068,20*75

$GLGSV,2,1,08,78,54,016,24,77,31,094,21,79,26,326,13,69,09,289,14*62

$GLGSV,2,2,08,88,66,060,21,87,19,029,24,,,,32,68,05,241,22*5F

$GPGGA,142914.0,3206.204424,N,03511.394201,E,1,10,0.7,606.7,M,19.0,M,,*56

$GNGNS,142914.0,3206.204424,N,03511.394201,E,AA,15,0.7,606.7,19.0,,*67

$GPVTG,281.4,T,278.5,M,46.5,N,86.1,K,A*2C

$GPRMC,142914.0,A,3206.204424,N,03511.394201,E,46.5,281.4,310316,3.0,E,A*3B

$GPGSA,A,2,02,06,12,13,15,17,19,24,25,28,,,1.0,0.7,0.7*36

$GNGSA,A,2,02,06,12,13,15,17,19,24,25,28,,,1.0,0.7,0.7*28

$GNGSA,A,2,68,77,78,87,88,,,,,,,,1.0,0.7,0.7*22

$GPGSV,3,1,10,02,22,156,20,06,31,109,24,12,35,291,21,13,27,185,30*76

$GPGSV,3,2,10,15,38,233,24,17,31,040,25,19,61,049,31,24,56,322,28*79

$GPGSV,3,3,10,25,05,272,16,28,09,068,17*71

$GLGSV,2,1,08,78,54,016,19,77,31,094,21,79,26,326,13,69,09,289,12*6A

$GLGSV,2,2,08,88,66,060,21,87,19,029,21,,,,32,68,05,241,22*5A

$GPGGA,142915.0,3206.206912,N,03511.380003,E,1,10,0.7,608.0,M,19.0,M,,*51

$GNGNS,142915.0,3206.206912,N,03511.380003,E,AA,16,0.7,608.0,19.0,,*63

$GPVTG,281.0,T,278.0,M,45.0,N,83.4,K,A*2B

$GPRMC,142915.0,A,3206.206912,N,03511.380003,E,45.0,281.0,310316,3.0,E,A*37

$GPGSA,A,2,02,06,12,13,15,17,19,24,25,28,,,1.0,0.7,0.7*36

$GNGSA,A,2,02,06,12,13,15,17,19,24,25,28,,,1.0,0.7,0.7*28

$GNGSA,A,2,68,69,77,78,87,88,,,,,,,1.0,0.7,0.7*2D

$GPGSV,3,1,10,02,22,156,17,06,31,109,25,12,35,291,20,13,27,185,30*72

$GPGSV,3,2,10,15,38,233,24,17,31,040,26,19,61,049,31,24,56,322,29*7B

$GPGSV,3,3,10,25,05,272,16,28,09,068,18*7E

$GLGSV,2,1,08,78,54,016,21,77,31,094,21,79,26,326,13,69,09,289,12*61

$GLGSV,2,2,08,88,66,060,23,87,19,029,21,,,,32,68,05,241,22*58

$GPGGA,142916.0,3206.209359,N,03511.365031,E,1,10,0.7,607.7,M,19.0,M,,*5A

$GNGNS,142916.0,3206.209359,N,03511.365031,E,AA,16,0.7,607.7,19.0,,*68

$GPVTG,280.5,T,277.6,M,44.6,N,82.5,K,A*21

$GPRMC,142916.0,A,3206.209359,N,03511.365031,E,44.6,280.5,310316,3.0,E,A*37

$GPGSA,A,2,02,06,12,13,15,17,19,24,25,28,,,1.0,0.7,0.7*36

$GNGSA,A,2,02,06,12,13,15,17,19,24,25,28,,,1.0,0.7,0.7*28

$GNGSA,A,2,68,69,77,78,87,88,,,,,,,1.0,0.7,0.7*2D

$GPGSV,3,1,10,02,22,156,19,06,31,109,25,12,35,291,19,13,27,185,31*77

$GPGSV,3,2,10,15,38,233,26,17,31,040,26,19,61,049,32,24,56,322,29*7A

$GPGSV,3,3,10,25,05,272,16,28,09,068,16*70

$GLGSV,2,1,08,78,54,016,22,77,31,094,14,79,26,326,14,69,09,289,12*63

$GLGSV,2,2,08,88,66,060,25,87,19,029,21,,,,33,68,05,241,22*5F

$GPGGA,142917.0,3206.213074,N,03511.351667,E,1,10,0.7,604.9,M,19.0,M,,*53

$GNGNS,142917.0,3206.213074,N,03511.351667,E,AA,16,0.7,604.9,19.0,,*61

$GPVTG,281.6,T,278.6,M,42.8,N,79.3,K,A*26

$GPRMC,142917.0,A,3206.213074,N,03511.351667,E,42.8,281.6,310316,3.0,E,A*39

$GPGSA,A,2,02,06,12,13,15,17,19,24,25,28,,,1.0,0.7,0.7*36

$GNGSA,A,2,02,06,12,13,15,17,19,24,25,28,,,1.0,0.7,0.7*28

$GNGSA,A,2,68,69,77,78,87,88,,,,,,,1.0,0.7,0.7*2D

$GPGSV,3,1,10,02,22,156,21,06,31,109,26,12,35,291,22,13,27,185,32*74

$GPGSV,3,2,10,15,38,233,27,17,31,040,28,19,61,049,32,24,56,322,30*7D

$GPGSV,3,3,10,28,09,068,18,25,05,272,*79

$GLGSV,2,1,08,78,54,016,24,77,31,094,19,79,26,326,18,69,09,289,12*64

$GLGSV,2,2,08,88,66,060,26,87,19,029,24,,,,33,68,05,241,22*59

$GPGGA,142918.0,3206.214456,N,03511.339296,E,1,10,0.7,603.7,M,19.0,M,,*52

$GNGNS,142918.0,3206.214456,N,03511.339296,E,AA,16,0.7,603.7,19.0,,*60

$GPVTG,281.2,T,278.2,M,40.0,N,74.1,K,A*23

$GPRMC,142918.0,A,3206.214456,N,03511.339296,E,40.0,281.2,310316,3.0,E,A*3F

$GPGSA,A,2,02,06,12,13,15,17,19,24,25,28,,,1.0,0.7,0.7*36

$GNGSA,A,2,02,06,12,13,15,17,19,24,25,28,,,1.0,0.7,0.7*28

$GNGSA,A,2,68,69,77,78,87,88,,,,,,,1.0,0.7,0.7*2D

$GPGSV,3,1,10,02,22,156,22,06,31,109,29,12,35,291,24,13,27,185,33*7F

$GPGSV,3,2,10,15,38,233,31,17,31,040,26,19,61,049,32,24,56,322,30*74

$GPGSV,3,3,10,28,09,068,17,25,05,272,*76

$GLGSV,2,1,08,78,54,016,26,77,31,094,19,79,26,326,20,69,09,289,14*6B

$GLGSV,2,2,08,88,66,060,24,87,19,029,27,,,,33,68,05,241,22*58

$GPGGA,142919.0,3206.216342,N,03511.327431,E,1,10,0.7,602.4,M,19.0,M,,*55

$GNGNS,142919.0,3206.216342,N,03511.327431,E,AA,16,0.7,602.4,19.0,,*67

$GPVTG,281.1,T,278.1,M,38.6,N,71.5,K,A*2B

$GPRMC,142919.0,A,3206.216342,N,03511.327431,E,38.6,281.1,310316,3.0,E,A*30

$GPGSA,A,2,02,06,12,13,15,17,19,24,25,28,,,1.0,0.7,0.7*36

$GNGSA,A,2,02,06,12,13,15,17,19,24,25,28,,,1.0,0.7,0.7*28

$GNGSA,A,2,68,69,77,78,87,88,,,,,,,1.0,0.7,0.7*2D

$GPGSV,3,1,10,02,22,156,24,06,31,109,29,12,35,291,25,13,27,185,32*79

$GPGSV,3,2,10,15,38,233,32,17,31,040,29,19,61,049,32,24,56,322,29*70

$GPGSV,3,3,10,28,09,068,22,25,05,272,*70

$GLGSV,2,1,08,78,54,016,26,77,31,094,19,79,26,326,23,69,09,289,14*68

$GLGSV,2,2,08,88,66,060,23,87,19,029,26,,,,34,68,05,241,13*5B

$GPGGA,142920.0,3206.218170,N,03511.316093,E,1,09,0.7,601.6,M,19.0,M,,*55

$GNGNS,142920.0,3206.218170,N,03511.316093,E,AA,15,0.7,601.6,19.0,,*6C

$GPVTG,280.0,T,277.0,M,36.3,N,67.2,K,A*2E

$GPRMC,142920.0,A,3206.218170,N,03511.316093,E,36.3,280.0,310316,3.0,E,A*32

$GPGSA,A,2,02,06,12,13,15,17,19,24,28,,,,1.0,0.7,0.7*31

$GNGSA,A,2,02,06,12,13,15,17,19,24,28,,,,1.0,0.7,0.7*2F

$GNGSA,A,2,68,69,77,78,87,88,,,,,,,1.0,0.7,0.7*2D

$GPGSV,3,1,10,02,22,156,24,06,31,109,22,12,35,291,20,13,27,185,32*77

$GPGSV,3,2,10,15,38,233,29,17,31,040,29,19,61,049,32,24,56,322,26*75

$GPGSV,3,3,10,28,09,068,19,25,05,272,*78

$GLGSV,2,1,08,78,54,016,24,77,31,094,19,79,26,326,23,69,09,289,14*6A

$GLGSV,2,2,08,88,66,060,23,87,19,029,22,,,,34,68,05,241,18*54

$GPGGA,142921.0,3206.219870,N,03511.305273,E,1,09,0.7,601.4,M,19.0,M,,*50

$GNGNS,142921.0,3206.219870,N,03511.305273,E,AA,15,0.7,601.4,19.0,,*69

$GPVTG,278.7,T,275.7,M,34.1,N,63.1,K,A*2C

$GPRMC,142921.0,A,3206.219870,N,03511.305273,E,34.1,278.7,310316,3.0,E,A*35

$GPGSA,A,2,02,06,12,13,15,17,19,24,28,,,,1.0,0.7,0.7*31

$GNGSA,A,2,02,06,12,13,15,17,19,24,28,,,,1.0,0.7,0.7*2F

$GNGSA,A,2,68,69,77,78,87,88,,,,,,,1.0,0.7,0.7*2D

$GPGSV,3,1,10,02,22,156,22,06,31,109,22,12,35,291,20,13,27,185,31*72

$GPGSV,3,2,10,15,38,233,29,17,31,040,28,19,61,049,31,24,56,322,24*75

$GPGSV,3,3,10,28,09,068,19,25,05,272,*78

$GLGSV,2,1,08,78,54,016,23,77,31,094,19,79,26,326,21,69,09,289,14*6F

$GLGSV,2,2,08,88,66,060,20,87,19,029,18,,,,33,68,05,241,23*51

$GPGGA,142922.0,3206.220926,N,03511.294977,E,1,09,0.7,601.4,M,19.0,M,,*5D

$GNGNS,142922.0,3206.220926,N,03511.294977,E,AA,15,0.7,601.4,19.0,,*64

$GPVTG,277.9,T,274.9,M,30.6,N,56.7,K,A*21

$GPRMC,142922.0,A,3206.220926,N,03511.294977,E,30.6,277.9,310316,3.0,E,A*3A

$GPGSA,A,2,02,06,12,13,15,17,19,24,28,,,,1.0,0.7,0.7*31

$GNGSA,A,2,02,06,12,13,15,17,19,24,28,,,,1.0,0.7,0.7*2F

$GNGSA,A,2,68,69,77,78,87,88,,,,,,,1.0,0.7,0.7*2D

$GPGSV,3,1,10,02,22,156,21,06,31,109,22,12,35,291,21,13,27,185,29*79

$GPGSV,3,2,10,15,38,233,27,17,31,040,26,19,61,049,29,24,56,322,21*79

$GPGSV,3,3,10,28,09,068,19,25,05,272,*78

$GLGSV,2,1,08,78,54,016,22,77,31,094,19,79,26,326,20,69,09,289,14*6F

$GLGSV,2,2,08,88,66,060,21,87,19,029,18,,,,32,68,05,241,22*50

$GPGGA,142923.0,3206.221868,N,03511.286096,E,1,09,0.7,599.8,M,19.0,M,,*5D

$GNGNS,142923.0,3206.221868,N,03511.286096,E,AA,15,0.7,599.8,19.0,,*64

$GPVTG,276.9,T,274.0,M,27.3,N,50.5,K,A*2E

$GPRMC,142923.0,A,3206.221868,N,03511.286096,E,27.3,276.9,310316,3.0,E,A*36

$GPGSA,A,2,02,06,12,13,15,17,19,24,28,,,,1.0,0.7,0.7*31

$GNGSA,A,2,02,06,12,13,15,17,19,24,28,,,,1.0,0.7,0.7*2F

$GNGSA,A,2,68,69,77,78,87,88,,,,,,,1.0,0.7,0.7*2D

$GPGSV,3,1,10,02,22,156,20,06,31,109,22,12,35,291,22,13,27,185,29*7B

$GPGSV,3,2,10,15,38,233,29,17,31,040,25,19,61,049,29,24,56,322,21*74

$GPGSV,3,3,10,28,09,068,19,25,05,272,*78

$GLGSV,2,1,08,78,54,016,19,77,31,094,19,79,26,326,22,69,09,289,14*65

$GLGSV,2,2,08,88,66,060,19,87,19,029,18,,,,31,68,05,241,22*58

$GPGGA,142924.0,3206.221717,N,03511.278787,E,1,09,0.7,600.9,M,19.0,M,,*59

$GNGNS,142924.0,3206.221717,N,03511.278787,E,AA,15,0.7,600.9,19.0,,*60

$GPVTG,274.6,T,271.7,M,23.8,N,44.1,K,A*2F

$GPRMC,142924.0,A,3206.221717,N,03511.278787,E,23.8,274.6,310316,3.0,E,A*32

$GPGSA,A,2,02,06,12,13,15,17,19,24,28,,,,1.0,0.7,0.7*31

$GNGSA,A,2,02,06,12,13,15,17,19,24,28,,,,1.0,0.7,0.7*2F

$GNGSA,A,2,68,69,77,78,87,88,,,,,,,1.0,0.7,0.7*2D

$GPGSV,3,1,10,02,22,156,20,06,31,109,22,12,35,291,23,13,27,185,29*7A

$GPGSV,3,2,10,15,38,233,30,17,31,040,26,19,61,049,29,24,56,322,21*7F

$GPGSV,3,3,10,28,09,068,19,25,05,272,*78

$GLGSV,2,1,08,78,54,016,21,77,31,094,19,79,26,326,22,69,09,289,14*6E

$GLGSV,2,2,08,88,66,060,19,87,19,029,18,,,,31,68,05,241,23*59

$GPGGA,142925.0,3206.223341,N,03511.271211,E,1,09,0.7,601.1,M,19.0,M,,*57

$GNGNS,142925.0,3206.223341,N,03511.271211,E,AA,14,0.7,601.1,19.0,,*6F

$GPVTG,276.8,T,273.8,M,22.9,N,42.5,K,A*2C

$GPRMC,142925.0,A,3206.223341,N,03511.271211,E,22.9,276.8,310316,3.0,E,A*39

$GPGSA,A,2,02,06,12,13,15,17,19,24,28,,,,1.0,0.7,0.7*31

$GNGSA,A,2,02,06,12,13,15,17,19,24,28,,,,1.0,0.7,0.7*2F

$GNGSA,A,2,68,69,78,87,88,,,,,,,,1.0,0.7,0.7*2D

$GPGSV,3,1,10,02,22,156,21,06,31,109,22,12,35,291,24,13,27,185,29*7C

$GPGSV,3,2,10,15,38,233,30,17,31,040,25,19,61,049,29,24,56,322,22*7F

$GPGSV,3,3,10,28,09,068,19,25,05,272,*78

$GLGSV,2,1,08,78,54,016,22,77,31,094,19,79,26,326,23,69,09,289,14*6C

$GLGSV,2,2,08,88,66,060,19,87,19,029,18,,,,31,68,05,241,20*5A

$GPGGA,142926.0,3206.224128,N,03511.264708,E,1,09,0.8,601.0,M,19.0,M,,*59

$GNGNS,142926.0,3206.224128,N,03511.264708,E,AA,13,0.8,601.0,19.0,,*66

$GPVTG,276.7,T,273.7,M,20.8,N,38.5,K,A*22

$GPRMC,142926.0,A,3206.224128,N,03511.264708,E,20.8,276.7,310316,3.0,E,A*35

$GPGSA,A,2,02,06,12,13,15,17,19,24,28,,,,1.1,0.8,0.8*30

$GNGSA,A,2,02,06,12,13,15,17,19,24,28,,,,1.1,0.8,0.8*2E

$GNGSA,A,2,68,78,87,88,,,,,,,,,1.1,0.8,0.8*23

$GPGSV,3,1,10,02,22,156,19,06,31,109,15,12,35,291,23,13,27,185,26*7B

$GPGSV,3,2,10,15,38,233,29,17,31,040,25,19,61,049,26,24,56,322,21*7B

$GPGSV,3,3,10,28,09,068,19,25,05,272,*78

$GLGSV,2,1,08,78,54,016,18,77,31,094,19,79,26,326,22,69,09,289,14*64

$GLGSV,2,2,08,88,66,060,19,87,19,029,13,,,,30,68,05,241,22*52

$GPGGA,142927.0,3206.223841,N,03511.260380,E,1,09,0.8,600.5,M,19.0,M,,*5D

$GNGNS,142927.0,3206.223841,N,03511.260380,E,AA,13,0.8,600.5,19.0,,*62

$GPVTG,275.0,T,272.1,M,17.8,N,33.0,K,A*2B

$GPRMC,142927.0,A,3206.223841,N,03511.260380,E,17.8,275.0,310316,3.0,E,A*35

$GPGSA,A,2,02,06,12,13,15,17,19,24,28,,,,1.1,0.8,0.8*30

$GNGSA,A,2,02,06,12,13,15,17,19,24,28,,,,1.1,0.8,0.8*2E

$GNGSA,A,2,68,78,87,88,,,,,,,,,1.1,0.8,0.8*23

$GPGSV,3,1,10,02,22,156,19,06,31,109,20,12,35,291,22,13,27,185,26*7C

$GPGSV,3,2,10,15,38,233,27,17,31,040,26,19,61,049,25,24,56,322,24*70

$GPGSV,3,3,10,28,09,068,19,25,05,272,*78

$GLGSV,2,1,08,78,54,016,21,77,31,094,19,79,26,326,20,69,09,289,14*6C

$GLGSV,2,2,08,88,66,060,14,87,19,029,16,,,,30,68,05,241,20*58

$GPGGA,142928.0,3206.222991,N,03511.259206,E,1,08,0.8,601.2,M,19.0,M,,*5D

$GNGNS,142928.0,3206.222991,N,03511.259206,E,AA,12,0.8,601.2,19.0,,*62

$GPVTG,275.3,T,272.3,M,10.2,N,19.0,K,A*2F

$GPRMC,142928.0,A,3206.222991,N,03511.259206,E,10.2,275.3,310316,3.0,E,A*3C

$GPGSA,A,2,02,06,12,13,15,17,19,24,,,,,1.1,0.8,0.8*3A

$GNGSA,A,2,02,06,12,13,15,17,19,24,,,,,1.1,0.8,0.8*24

$GNGSA,A,2,68,78,87,88,,,,,,,,,1.1,0.8,0.8*23

$GPGSV,3,1,10,02,22,156,18,06,31,109,21,12,35,291,20,13,26,185,29*70

$GPGSV,3,2,10,15,38,232,28,17,31,040,29,19,61,049,28,24,56,322,27*7F

$GPGSV,3,3,10,28,08,068,19,25,05,272,*79

$GLGSV,2,1,08,78,54,016,22,77,31,095,19,79,27,326,21,69,09,289,14*6E

$GLGSV,2,2,08,88,66,059,16,87,19,029,16,,,,31,68,05,241,18*5A

$GPGGA,142929.0,3206.223041,N,03511.257584,E,1,08,0.8,600.8,M,19.0,M,,*51

$GNGNS,142929.0,3206.223041,N,03511.257584,E,AA,12,0.8,600.8,19.0,,*6E

$GPVTG,280.0,T,277.0,M,6.1,N,11.2,K,A*1E

$GPRMC,142929.0,A,3206.223041,N,03511.257584,E,6.1,280.0,310316,3.0,E,A*06

$GPGSA,A,2,02,06,12,13,15,17,19,24,,,,,1.1,0.8,0.8*3A

$GNGSA,A,2,02,06,12,13,15,17,19,24,,,,,1.1,0.8,0.8*24

$GNGSA,A,2,68,78,87,88,,,,,,,,,1.1,0.8,0.8*23

$GPGSV,3,1,10,02,22,156,18,06,31,109,20,12,35,291,24,13,26,185,30*7D

$GPGSV,3,2,10,15,38,232,30,17,31,040,28,19,61,049,31,24,56,322,31*78

$GPGSV,3,3,10,28,08,068,19,25,05,272,*79

$GLGSV,2,1,08,78,54,016,23,77,31,095,19,79,27,326,21,69,09,289,14*6F

$GLGSV,2,2,08,88,66,059,21,87,19,029,21,,,,31,68,05,241,18*5A

$GPGGA,142930.0,3206.223862,N,03511.256863,E,1,08,0.8,600.1,M,19.0,M,,*5C

$GNGNS,142930.0,3206.223862,N,03511.256863,E,AA,12,0.8,600.1,19.0,,*63

$GPVTG,280.0,T,277.0,M,2.7,N,4.9,K,A*23

$GPRMC,142930.0,A,3206.223862,N,03511.256863,E,2.7,280.0,310316,3.0,E,A*00

$GPGSA,A,2,02,06,12,13,15,17,19,24,,,,,1.1,0.8,0.8*3A

$GNGSA,A,2,02,06,12,13,15,17,19,24,,,,,1.1,0.8,0.8*24

$GNGSA,A,2,68,78,87,88,,,,,,,,,1.1,0.8,0.8*23

$GPGSV,3,1,10,02,22,156,17,06,31,109,20,12,35,291,26,13,26,185,34*74

$GPGSV,3,2,10,15,38,232,28,17,31,040,26,19,61,049,30,24,56,322,30*7F

$GPGSV,3,3,10,25,05,272,14,28,08,068,19*7C

$GLGSV,2,1,08,78,54,016,21,77,31,095,19,79,27,326,17,69,09,289,14*68

$GLGSV,2,2,08,88,66,059,22,87,19,029,22,,,,30,68,05,241,17*54

$GPGGA,142931.0,3206.224047,N,03511.256648,E,1,09,0.8,600.9,M,19.0,M,,*5B

$GNGNS,142931.0,3206.224047,N,03511.256648,E,AA,13,0.8,600.9,19.0,,*64

$GPVTG,280.0,T,277.0,M,0.9,N,1.6,K,A*25

$GPRMC,142931.0,A,3206.224047,N,03511.256648,E,0.9,280.0,310316,3.0,E,A*02

$GPGSA,A,2,02,06,12,13,15,17,19,24,25,,,,1.1,0.8,0.8*3D

$GNGSA,A,2,02,06,12,13,15,17,19,24,25,,,,1.1,0.8,0.8*23

$GNGSA,A,2,68,78,87,88,,,,,,,,,1.1,0.8,0.8*23

$GPGSV,3,1,10,02,22,156,18,06,31,109,21,12,35,291,30,13,26,185,36*7F

$GPGSV,3,2,10,15,38,232,25,17,31,040,23,19,61,049,30,24,56,322,29*7F

$GPGSV,3,3,10,25,05,272,21,28,08,068,19*7A

$GLGSV,2,1,08,78,54,016,22,77,31,095,19,79,27,326,19,69,09,289,19*68

$GLGSV,2,2,08,88,66,059,25,87,19,029,21,,,,29,68,05,241,17*58

$GPGGA,142932.0,3206.224274,N,03511.256201,E,1,09,0.8,600.6,M,19.0,M,,*5C

$GNGNS,142932.0,3206.224274,N,03511.256201,E,AA,13,0.8,600.6,19.0,,*63

$GPVTG,280.0,T,277.0,M,1.0,N,1.8,K,A*23

$GPRMC,142932.0,A,3206.224274,N,03511.256201,E,1.0,280.0,310316,3.0,E,A*02

$GPGSA,A,2,02,06,12,13,15,17,19,24,25,,,,1.1,0.8,0.8*3D

$GNGSA,A,2,02,06,12,13,15,17,19,24,25,,,,1.1,0.8,0.8*23

$GNGSA,A,2,68,78,87,88,,,,,,,,,1.1,0.8,0.8*23

$GPGSV,3,1,10,02,22,156,18,06,31,109,21,12,35,291,32,13,26,185,33*78

$GPGSV,3,2,10,15,38,232,30,17,31,040,23,19,61,049,30,24,56,322,33*70

$GPGSV,3,3,10,25,05,272,20,28,08,068,19*7B

$GLGSV,2,1,08,78,54,016,22,77,31,095,19,79,27,326,20,69,09,289,19*62

$GLGSV,2,2,08,88,66,059,25,87,19,029,22,,,,26,68,05,241,21*51

$GPGGA,142933.0,3206.224600,N,03511.254760,E,1,09,0.8,600.0,M,19.0,M,,*5C

$GNGNS,142933.0,3206.224600,N,03511.254760,E,AA,13,0.8,600.0,19.0,,*63

$GPVTG,280.0,T,277.0,M,3.3,N,6.0,K,A*2D

$GPRMC,142933.0,A,3206.224600,N,03511.254760,E,3.3,280.0,310316,3.0,E,A*05

$GPGSA,A,2,02,06,12,13,15,17,19,24,25,,,,1.1,0.8,0.8*3D

$GNGSA,A,2,02,06,12,13,15,17,19,24,25,,,,1.1,0.8,0.8*23

$GNGSA,A,2,68,78,87,88,,,,,,,,,1.1,0.8,0.8*23

$GPGSV,3,1,10,02,22,156,19,06,31,109,27,12,35,291,32,13,26,185,23*7E

$GPGSV,3,2,10,15,38,232,30,17,31,040,30,19,61,049,26,24,56,322,31*77

$GPGSV,3,3,10,25,05,272,21,28,08,068,19*7A

$GLGSV,2,1,08,78,54,016,25,77,31,095,16,79,27,326,20,69,09,289,18*6B

$GLGSV,2,2,08,88,66,059,24,87,19,029,26,,,,28,68,05,241,20*5B

$GPGGA,142934.0,3206.225955,N,03511.253055,E,1,09,0.7,599.5,M,19.0,M,,*5A

$GNGNS,142934.0,3206.225955,N,03511.253055,E,AA,15,0.7,599.5,19.0,,*63

$GPVTG,305.5,T,302.6,M,7.4,N,13.7,K,A*11

$GPRMC,142934.0,A,3206.225955,N,03511.253055,E,7.4,305.5,310316,3.0,E,A*00

$GPGSA,A,2,02,06,12,13,15,17,19,24,25,,,,1.0,0.7,0.8*33

$GNGSA,A,2,02,06,12,13,15,17,19,24,25,,,,1.0,0.7,0.8*2D

$GNGSA,A,2,68,69,77,78,87,88,,,,,,,1.0,0.7,0.8*22

$GPGSV,3,1,10,02,22,156,27,06,31,109,20,12,35,291,27,13,26,185,23*70

$GPGSV,3,2,10,15,38,232,28,17,31,040,26,19,61,049,24,24,56,322,26*7D

$GPGSV,3,3,10,25,05,272,22,28,08,068,19*79

$GLGSV,2,1,08,78,54,016,28,77,31,095,16,79,27,326,20,69,09,289,18*66

$GLGSV,2,2,08,88,66,059,22,87,19,029,24,,,,23,68,05,241,20*54

$GPGGA,142935.0,3206.228288,N,03511.250095,E,1,09,0.7,600.2,M,19.0,M,,*56

$GNGNS,142935.0,3206.228288,N,03511.250095,E,AA,15,0.7,600.2,19.0,,*6F

$GPVTG,310.5,T,307.6,M,10.6,N,19.6,K,A*2F

$GPRMC,142935.0,A,3206.228288,N,03511.250095,E,10.6,310.5,310316,3.0,E,A*38

$GPGSA,A,2,02,06,12,13,15,17,19,24,25,,,,1.0,0.7,0.8*33

$GNGSA,A,2,02,06,12,13,15,17,19,24,25,,,,1.0,0.7,0.8*2D

$GNGSA,A,2,68,69,77,78,87,88,,,,,,,1.0,0.7,0.8*22

$GPGSV,3,1,10,02,22,156,21,06,31,109,22,12,35,291,30,13,26,185,19*7B

$GPGSV,3,2,10,15,38,232,27,17,31,040,23,19,61,049,24,24,56,322,27*76

$GPGSV,3,3,10,25,05,272,16,28,08,068,19*7E

$GLGSV,2,1,08,78,54,016,20,77,31,095,17,79,27,326,16,69,09,289,18*6A

$GLGSV,2,2,08,88,66,059,21,87,19,029,21,,,,20,68,05,241,17*55

$GPGGA,142936.0,3206.230772,N,03511.246664,E,1,09,0.7,598.6,M,19.0,M,,*55

$GNGNS,142936.0,3206.230772,N,03511.246664,E,AA,15,0.7,598.6,19.0,,*6C

$GPVTG,303.7,T,300.8,M,13.4,N,24.8,K,A*27

$GPRMC,142936.0,A,3206.230772,N,03511.246664,E,13.4,303.7,310316,3.0,E,A*3C

$GPGSA,A,2,02,06,12,13,15,17,19,24,25,,,,1.0,0.7,0.8*33

$GNGSA,A,2,02,06,12,13,15,17,19,24,25,,,,1.0,0.7,0.8*2D

$GNGSA,A,2,68,69,77,78,87,88,,,,,,,1.0,0.7,0.8*22

$GPGSV,3,1,10,02,22,156,21,06,31,109,22,12,35,291,27,13,26,185,29*7E

$GPGSV,3,2,10,15,38,232,26,17,31,040,23,19,61,049,29,24,56,322,28*75

$GPGSV,3,3,10,25,05,272,16,28,08,068,19*7E

$GLGSV,2,1,08,78,54,016,16,77,31,095,17,79,27,326,16,69,09,289,18*6F

$GLGSV,2,2,08,88,66,059,20,87,19,029,22,,,,28,68,05,241,17*5F

$GPGGA,142937.0,3206.231102,N,03511.241776,E,1,09,0.7,599.7,M,19.0,M,,*51

$GNGNS,142937.0,3206.231102,N,03511.241776,E,AA,15,0.7,599.7,19.0,,*68

$GPVTG,280.7,T,277.7,M,14.8,N,27.3,K,A*20

$GPRMC,142937.0,A,3206.231102,N,03511.241776,E,14.8,280.7,310316,3.0,E,A*39

$GPGSA,A,2,02,06,12,13,15,17,19,24,25,,,,1.0,0.7,0.8*33

$GNGSA,A,2,02,06,12,13,15,17,19,24,25,,,,1.0,0.7,0.8*2D

$GNGSA,A,2,68,69,77,78,87,88,,,,,,,1.0,0.7,0.8*22

$GPGSV,3,1,10,02,22,156,25,06,31,109,25,12,35,291,23,13,26,185,25*75

$GPGSV,3,2,10,15,38,232,27,17,31,040,26,19,61,049,29,24,56,322,24*7D

$GPGSV,3,3,10,25,05,272,16,28,08,068,19*7E

$GLGSV,2,1,08,78,54,016,24,77,31,095,18,79,27,326,16,69,09,289,18*61

$GLGSV,2,2,08,88,66,059,23,87,19,029,19,,,,24,68,05,241,20*5C

$GPGGA,142938.0,3206.231483,N,03511.236468,E,1,09,0.7,597.5,M,19.0,M,,*52

$GNGNS,142938.0,3206.231483,N,03511.236468,E,AA,15,0.7,597.5,19.0,,*6B

$GPVTG,273.0,T,270.0,M,16.4,N,30.5,K,A*25

$GPRMC,142938.0,A,3206.231483,N,03511.236468,E,16.4,273.0,310316,3.0,E,A*33

$GPGSA,A,2,02,06,12,13,15,17,19,24,25,,,,1.0,0.7,0.8*33

$GNGSA,A,2,02,06,12,13,15,17,19,24,25,,,,1.0,0.7,0.8*2D

$GNGSA,A,2,68,69,77,78,87,88,,,,,,,1.0,0.7,0.8*22

$GPGSV,3,1,10,02,22,156,25,06,31,109,23,12,35,291,23,13,26,185,28*7E

$GPGSV,3,2,10,15,38,232,28,17,31,040,26,19,61,049,29,24,56,322,28*7E

$GPGSV,3,3,10,25,05,272,16,28,08,068,19*7E

$GLGSV,2,1,08,78,54,016,27,77,31,095,18,79,27,326,16,69,09,289,18*62

$GLGSV,2,2,08,88,66,059,19,87,19,029,22,,,,25,68,05,241,19*56

$GPGGA,142939.0,3206.228932,N,03511.230652,E,1,09,0.7,596.8,M,19.0,M,,*5D

$GNGNS,142939.0,3206.228932,N,03511.230652,E,AA,15,0.7,596.8,19.0,,*64

$GPVTG,253.8,T,250.9,M,19.0,N,35.2,K,A*2D

$GPRMC,142939.0,A,3206.228932,N,03511.230652,E,19.0,253.8,310316,3.0,E,A*31

$GPGSA,A,2,02,06,12,13,15,17,19,24,25,,,,1.0,0.7,0.8*33

$GNGSA,A,2,02,06,12,13,15,17,19,24,25,,,,1.0,0.7,0.8*2D

$GNGSA,A,2,68,69,77,78,87,88,,,,,,,1.0,0.7,0.8*22

$GPGSV,3,1,10,02,22,156,25,06,31,109,25,12,35,291,21,13,26,185,25*77

$GPGSV,3,2,10,15,38,232,28,17,31,040,23,19,61,049,30,24,56,322,26*7D

$GPGSV,3,3,10,25,05,272,16,28,08,068,19*7E

$GLGSV,2,1,08,78,54,016,25,77,31,095,18,79,27,326,16,69,09,289,18*60

$GLGSV,2,2,08,88,66,059,19,87,19,029,22,,,,27,68,05,241,19*54

$GPGGA,142940.0,3206.227690,N,03511.223806,E,1,09,0.7,597.4,M,19.0,M,,*5B

$GNGNS,142940.0,3206.227690,N,03511.223806,E,AA,15,0.7,597.4,19.0,,*62

$GPVTG,254.5,T,251.5,M,20.2,N,37.5,K,A*27

$GPRMC,142940.0,A,3206.227690,N,03511.223806,E,20.2,254.5,310316,3.0,E,A*38

$GPGSA,A,2,02,06,12,13,15,17,19,24,25,,,,1.0,0.7,0.8*33

$GNGSA,A,2,02,06,12,13,15,17,19,24,25,,,,1.0,0.7,0.8*2D

$GNGSA,A,2,68,69,77,78,87,88,,,,,,,1.0,0.7,0.8*22

$GPGSV,3,1,10,02,22,156,19,06,31,109,20,12,35,291,25,13,26,185,21*7D

$GPGSV,3,2,10,15,38,232,29,17,31,040,22,19,61,049,29,24,56,322,23*70

$GPGSV,3,3,10,25,05,272,17,28,08,068,19*7F

$GLGSV,2,1,08,78,54,016,22,77,31,095,18,79,27,326,17,69,09,289,18*66

$GLGSV,2,2,08,88,66,059,16,87,19,029,22,,,,26,68,05,241,17*54

$GPGGA,142941.0,3206.226040,N,03511.216259,E,1,09,0.7,596.5,M,19.0,M,,*56

$GNGNS,142941.0,3206.226040,N,03511.216259,E,AA,14,0.7,596.5,19.0,,*6E

$GPVTG,254.1,T,251.2,M,22.3,N,41.3,K,A*20

$GPRMC,142941.0,A,3206.226040,N,03511.216259,E,22.3,254.1,310316,3.0,E,A*32

$GPGSA,A,2,02,06,12,13,15,17,19,24,25,,,,1.1,0.7,0.8*32

$GNGSA,A,2,02,06,12,13,15,17,19,24,25,,,,1.1,0.7,0.8*2C

$GNGSA,A,2,68,77,78,87,88,,,,,,,,1.1,0.7,0.8*2C

$GPGSV,3,1,10,02,22,156,24,06,31,109,21,12,35,291,26,13,26,185,22*72

$GPGSV,3,2,10,15,38,232,29,17,31,040,21,19,61,049,26,24,56,322,21*7E

$GPGSV,3,3,10,25,05,272,17,28,08,068,19*7F

$GLGSV,2,1,08,78,54,016,22,77,31,095,18,79,27,326,22,69,09,289,18*60

$GLGSV,2,2,08,88,66,059,18,87,19,029,15,,,,27,68,05,241,22*59

$GPGGA,142942.0,3206.223862,N,03511.208108,E,1,09,0.7,595.0,M,19.0,M,,*56

$GNGNS,142942.0,3206.223862,N,03511.208108,E,AA,14,0.7,595.0,19.0,,*6E

$GPVTG,252.5,T,249.5,M,24.8,N,45.9,K,A*2F

$GPRMC,142942.0,A,3206.223862,N,03511.208108,E,24.8,252.5,310316,3.0,E,A*3B

$GPGSA,A,2,02,06,12,13,15,17,19,24,25,,,,1.1,0.7,0.8*32

$GNGSA,A,2,02,06,12,13,15,17,19,24,25,,,,1.1,0.7,0.8*2C

$GNGSA,A,2,68,77,78,87,88,,,,,,,,1.1,0.7,0.8*2C

$GPGSV,3,1,10,02,22,156,27,06,31,109,23,12,35,291,27,13,26,185,24*74

$GPGSV,3,2,10,15,38,232,31,17,31,040,23,19,61,049,29,24,56,322,19*71

$GPGSV,3,3,10,25,05,272,17,28,08,068,19*7F

$GLGSV,2,1,08,78,54,016,24,77,31,095,14,79,27,326,25,69,09,289,18*6D

$GLGSV,2,2,08,88,66,059,22,87,19,029,15,,,,30,68,05,241,24*50

$GPGGA,142943.0,3206.226370,N,03511.196621,E,1,09,0.7,592.7,M,19.0,M,,*52

$GNGNS,142943.0,3206.226370,N,03511.196621,E,AA,14,0.7,592.7,19.0,,*6A

$GPVTG,267.4,T,264.5,M,31.2,N,57.8,K,A*2B

$GPRMC,142943.0,A,3206.226370,N,03511.196621,E,31.2,267.4,310316,3.0,E,A*36

$GPGSA,A,2,02,06,12,13,15,17,19,24,25,,,,1.1,0.7,0.8*32

$GNGSA,A,2,02,06,12,13,15,17,19,24,25,,,,1.1,0.7,0.8*2C

$GNGSA,A,2,68,77,78,87,88,,,,,,,,1.1,0.7,0.8*2C

$GPGSV,3,1,10,02,22,156,27,06,32,109,24,12,35,291,23,13,26,185,22*72

$GPGSV,3,2,10,15,38,232,28,17,30,040,21,19,61,049,29,24,56,322,19*7A

$GPGSV,3,3,10,25,05,272,17,28,08,068,19*7F

$GLGSV,3,1,09,78,54,016,25,77,31,095,14,79,27,326,22,69,09,289,18*6B

$GLGSV,3,2,09,88,66,059,20,87,18,029,15,,,,28,68,05,241,19*54

$GLGSV,3,3,09,82,,,*66

$GPGGA,142944.0,3206.225706,N,03511.185671,E,1,09,0.7,593.1,M,19.0,M,,*53

$GNGNS,142944.0,3206.225706,N,03511.185671,E,AA,14,0.7,593.1,19.0,,*6B

$GPVTG,266.1,T,263.2,M,32.5,N,60.2,K,A*25

$GPRMC,142944.0,A,3206.225706,N,03511.185671,E,32.5,266.1,310316,3.0,E,A*30

$GPGSA,A,2,02,06,12,13,15,17,19,24,25,,,,1.1,0.7,0.8*32

$GNGSA,A,2,02,06,12,13,15,17,19,24,25,,,,1.1,0.7,0.8*2C

$GNGSA,A,2,68,77,78,87,88,,,,,,,,1.1,0.7,0.8*2C

$GPGSV,3,1,10,02,22,156,28,06,32,109,24,12,35,291,23,13,26,185,17*7B

$GPGSV,3,2,10,15,38,232,27,17,30,040,20,19,61,049,27,24,56,322,19*7A

$GPGSV,3,3,10,25,05,272,20,28,08,068,13*71

$GLGSV,3,1,09,78,54,016,23,77,31,095,14,79,27,326,21,69,09,289,18*6E

$GLGSV,3,2,09,88,66,059,20,87,18,029,13,,,,26,68,05,241,19*5C

$GLGSV,3,3,09,82,,,*66

$GPGGA,142945.0,3206.226789,N,03511.173659,E,1,10,0.7,591.7,M,19.0,M,,*59

$GNGNS,142945.0,3206.226789,N,03511.173659,E,AA,15,0.7,591.7,19.0,,*68

$GPVTG,267.9,T,264.9,M,34.3,N,63.5,K,A*24

$GPRMC,142945.0,A,3206.226789,N,03511.173659,E,34.3,267.9,310316,3.0,E,A*3F

$GPGSA,A,2,02,06,12,13,15,17,19,24,25,28,,,1.0,0.7,0.7*36

$GNGSA,A,2,02,06,12,13,15,17,19,24,25,28,,,1.0,0.7,0.7*28

$GNGSA,A,2,68,77,78,87,88,,,,,,,,1.0,0.7,0.7*22

$GPGSV,3,1,10,02,22,156,30,06,32,109,25,12,35,291,17,13,26,185,21*71

$GPGSV,3,2,10,15,38,232,27,17,30,040,18,19,61,049,25,24,56,322,19*73

$GPGSV,3,3,10,25,05,272,19,28,08,068,20*7B

$GLGSV,3,1,09,78,54,016,23,77,31,095,14,79,27,326,18,69,09,289,18*64

$GLGSV,3,2,09,88,66,059,20,87,18,029,13,,,,23,68,05,241,19*59

$GLGSV,3,3,09,82,,,*66

$GPGGA,142946.0,3206.227561,N,03511.161341,E,1,10,0.7,594.2,M,19.0,M,,*50

$GNGNS,142946.0,3206.227561,N,03511.161341,E,AA,15,0.7,594.2,19.0,,*61

$GPVTG,269.3,T,266.3,M,35.1,N,65.0,K,A*28

$GPRMC,142946.0,A,3206.227561,N,03511.161341,E,35.1,269.3,310316,3.0,E,A*31

$GPGSA,A,2,02,06,12,13,15,17,19,24,25,28,,,1.0,0.7,0.7*36

$GNGSA,A,2,02,06,12,13,15,17,19,24,25,28,,,1.0,0.7,0.7*28

$GNGSA,A,2,68,77,78,87,88,,,,,,,,1.0,0.7,0.7*22

$GPGSV,3,1,10,02,22,156,32,06,32,109,26,12,35,291,17,13,26,185,23*72

$GPGSV,3,2,10,15,38,232,29,17,30,040,17,19,61,049,27,24,56,322,14*7D

$GPGSV,3,3,10,25,05,272,21,28,08,068,21*71

$GLGSV,3,1,09,78,54,016,24,77,31,095,14,79,27,326,19,69,09,289,18*62

$GLGSV,3,2,09,88,66,059,21,87,18,029,14,,,,24,68,05,241,19*58

$GLGSV,3,3,09,82,,,*66

$GPGGA,142947.0,3206.225704,N,03511.149276,E,1,10,0.7,593.9,M,19.0,M,,*51

$GNGNS,142947.0,3206.225704,N,03511.149276,E,AA,15,0.7,593.9,19.0,,*60

$GPVTG,264.9,T,262.0,M,37.4,N,69.3,K,A*20

$GPRMC,142947.0,A,3206.225704,N,03511.149276,E,37.4,264.9,310316,3.0,E,A*3C

$GPGSA,A,2,02,06,12,13,15,17,19,24,25,28,,,1.0,0.7,0.7*36

$GNGSA,A,2,02,06,12,13,15,17,19,24,25,28,,,1.0,0.7,0.7*28

$GNGSA,A,2,68,77,78,87,88,,,,,,,,1.0,0.7,0.7*22

$GPGSV,3,1,10,02,22,156,34,06,32,109,28,12,35,291,17,13,26,185,27*7E

$GPGSV,3,2,10,15,38,232,30,17,30,040,20,19,61,049,30,24,56,322,20*70

$GPGSV,3,3,10,25,05,272,24,28,08,068,21*74

$GLGSV,3,1,09,78,54,016,27,77,31,095,14,79,27,326,20,69,09,289,18*6B

$GLGSV,3,2,09,88,66,059,24,87,18,029,14,,,,25,68,05,241,15*50

$GLGSV,3,3,09,82,,,*66

$GPGGA,142948.0,3206.222984,N,03511.134959,E,1,10,0.7,593.7,M,19.0,M,,*5D

$GNGNS,142948.0,3206.222984,N,03511.134959,E,AA,15,0.7,593.7,19.0,,*6C

$GPVTG,262.8,T,259.8,M,41.0,N,76.0,K,A*2F

$GPRMC,142948.0,A,3206.222984,N,03511.134959,E,41.0,262.8,310316,3.0,E,A*3C

$GPGSA,A,2,02,06,12,13,15,17,19,24,25,28,,,1.0,0.7,0.7*36

$GNGSA,A,2,02,06,12,13,15,17,19,24,25,28,,,1.0,0.7,0.7*28

$GNGSA,A,2,68,77,78,87,88,,,,,,,,1.0,0.7,0.7*22

$GPGSV,3,1,10,02,22,156,33,06,32,109,28,12,35,291,19,13,26,185,26*76

$GPGSV,3,2,10,15,38,232,29,17,30,040,18,19,61,049,29,24,56,322,21*7A

$GPGSV,3,3,10,25,05,272,21,28,08,068,18*7B

$GLGSV,3,1,09,78,54,016,26,77,31,095,14,79,27,326,19,69,09,289,18*60

$GLGSV,3,2,09,88,66,059,23,87,18,029,16,,,,25,68,05,241,18*58

$GLGSV,3,3,09,82,,,*66

$GPGGA,142949.0,3206.222026,N,03511.121174,E,1,10,0.7,593.2,M,19.0,M,,*5B

$GNGNS,142949.0,3206.222026,N,03511.121174,E,AA,15,0.7,593.2,19.0,,*6A

$GPVTG,262.6,T,259.6,M,42.3,N,78.3,K,A*22

$GPRMC,142949.0,A,3206.222026,N,03511.121174,E,42.3,262.6,310316,3.0,E,A*31

$GPGSA,A,2,02,06,12,13,15,17,19,24,25,28,,,1.0,0.7,0.7*36

$GNGSA,A,2,02,06,12,13,15,17,19,24,25,28,,,1.0,0.7,0.7*28

$GNGSA,A,2,68,77,78,87,88,,,,,,,,1.0,0.7,0.7*22

$GPGSV,3,1,10,02,22,156,34,06,32,109,27,12,35,291,21,13,26,185,27*74

$GPGSV,3,2,10,15,38,232,29,17,30,040,18,19,61,049,30,24,56,322,26*75

$GPGSV,3,3,10,25,05,272,19,28,08,068,21*7A

$GLGSV,3,1,09,78,54,016,27,77,31,095,16,79,27,326,19,69,09,289,18*63

$GLGSV,3,2,09,88,66,059,22,87,18,029,18,,,,25,68,05,241,22*5E

$GLGSV,3,3,09,82,,,*66

$GPGGA,142950.0,3206.220198,N,03511.107229,E,1,10,0.7,592.8,M,19.0,M,,*51

$GNGNS,142950.0,3206.220198,N,03511.107229,E,AA,15,0.7,592.8,19.0,,*60

$GPVTG,261.2,T,258.3,M,43.0,N,79.7,K,A*26

$GPRMC,142950.0,A,3206.220198,N,03511.107229,E,43.0,261.2,310316,3.0,E,A*35

$GPGSA,A,2,02,06,12,13,15,17,19,24,25,28,,,1.0,0.7,0.7*36

$GNGSA,A,2,02,06,12,13,15,17,19,24,25,28,,,1.0,0.7,0.7*28

$GNGSA,A,2,68,77,78,87,88,,,,,,,,1.0,0.7,0.7*22

$GPGSV,3,1,10,02,22,156,31,06,32,109,24,12,35,291,19,13,26,185,25*7B

$GPGSV,3,2,10,15,38,232,26,17,30,040,21,19,61,049,28,24,56,322,24*7B

$GPGSV,3,3,10,25,05,272,19,28,08,068,21*7A

$GLGSV,3,1,09,78,54,016,24,77,31,095,16,79,27,326,19,69,09,289,18*60

$GLGSV,3,2,09,88,66,059,20,87,18,029,17,,,,23,68,05,241,21*56

$GLGSV,3,3,09,82,,,*66

$GPGGA,142951.0,3206.217333,N,03511.093571,E,1,10,0.7,592.7,M,19.0,M,,*5E

$GNGNS,142951.0,3206.217333,N,03511.093571,E,AA,15,0.7,592.7,19.0,,*6F

$GPVTG,259.9,T,256.9,M,43.5,N,80.6,K,A*20

$GPRMC,142951.0,A,3206.217333,N,03511.093571,E,43.5,259.9,310316,3.0,E,A*30

$GPGSA,A,2,02,06,12,13,15,17,19,24,25,28,,,1.0,0.7,0.7*36

$GNGSA,A,2,02,06,12,13,15,17,19,24,25,28,,,1.0,0.7,0.7*28

$GNGSA,A,2,68,77,78,87,88,,,,,,,,1.0,0.7,0.7*22

$GPGSV,3,1,10,02,22,156,31,06,32,109,22,12,35,291,22,13,26,185,24*74

$GPGSV,3,2,10,15,38,232,24,17,30,040,24,19,61,049,27,24,56,322,26*71

$GPGSV,3,3,10,25,05,272,19,28,08,068,21*7A

$GLGSV,3,1,09,78,54,016,23,77,31,095,16,79,27,326,19,69,09,289,18*67

$GLGSV,3,2,09,88,66,059,19,87,18,029,17,,,,22,68,05,241,22*5E

$GLGSV,3,3,09,82,,,*66

$GPGGA,142952.0,3206.214180,N,03511.079453,E,1,10,0.7,592.9,M,19.0,M,,*5F

$GNGNS,142952.0,3206.214180,N,03511.079453,E,AA,15,0.7,592.9,19.0,,*6E

$GPVTG,258.1,T,255.2,M,44.0,N,81.4,K,A*20

$GPRMC,142952.0,A,3206.214180,N,03511.079453,E,44.0,258.1,310316,3.0,E,A*34

$GPGSA,A,2,02,06,12,13,15,17,19,24,25,28,,,1.0,0.7,0.7*36

$GNGSA,A,2,02,06,12,13,15,17,19,24,25,28,,,1.0,0.7,0.7*28

$GNGSA,A,2,68,77,78,87,88,,,,,,,,1.0,0.7,0.7*22

$GPGSV,3,1,10,02,22,156,32,06,32,109,22,12,35,291,23,13,26,185,27*75

$GPGSV,3,2,10,15,38,232,23,17,30,040,25,19,61,049,28,24,56,322,28*76

$GPGSV,3,3,10,25,05,272,15,28,08,068,14*70

$GLGSV,3,1,09,78,54,016,25,77,31,095,16,79,27,326,19,69,09,289,18*61

$GLGSV,3,2,09,88,66,059,19,87,18,029,14,,,,24,68,05,241,22*5B

$GLGSV,3,3,09,82,,,*66

$GPGGA,142953.0,3206.210437,N,03511.063261,E,1,10,0.7,592.3,M,19.0,M,,*55

$GNGNS,142953.0,3206.210437,N,03511.063261,E,AA,15,0.7,592.3,19.0,,*64

$GPVTG,256.4,T,253.4,M,46.5,N,86.1,K,A*2E

$GPRMC,142953.0,A,3206.210437,N,03511.063261,E,46.5,256.4,310316,3.0,E,A*38

$GPGSA,A,2,02,06,12,13,15,17,19,24,25,28,,,1.0,0.7,0.7*36

$GNGSA,A,2,02,06,12,13,15,17,19,24,25,28,,,1.0,0.7,0.7*28

$GNGSA,A,2,68,77,78,87,88,,,,,,,,1.0,0.7,0.7*22

$GPGSV,3,1,10,02,22,156,34,06,32,109,23,12,35,291,26,13,26,185,28*78

$GPGSV,3,2,10,15,38,232,27,17,30,040,25,19,61,049,29,24,56,322,31*7B

$GPGSV,3,3,10,25,05,272,22,28,08,068,19*79

$GLGSV,3,1,09,78,54,016,27,77,31,095,16,79,27,326,15,69,09,289,18*6F

$GLGSV,3,2,09,88,66,059,21,87,18,029,25,,,,23,68,05,241,19*5D

$GLGSV,3,3,09,82,,,*66

$GPGGA,142954.0,3206.207391,N,03511.047480,E,1,10,0.7,590.1,M,19.0,M,,*50

$GNGNS,142954.0,3206.207391,N,03511.047480,E,AA,15,0.7,590.1,19.0,,*61

$GPVTG,255.7,T,252.7,M,47.0,N,87.0,K,A*28

$GPRMC,142954.0,A,3206.207391,N,03511.047480,E,47.0,255.7,310316,3.0,E,A*39

$GPGSA,A,2,02,06,12,13,15,17,19,24,25,28,,,1.0,0.7,0.7*36

$GNGSA,A,2,02,06,12,13,15,17,19,24,25,28,,,1.0,0.7,0.7*28

$GNGSA,A,2,68,77,78,87,88,,,,,,,,1.0,0.7,0.7*22

$GPGSV,3,1,10,02,22,156,34,06,32,109,22,12,35,291,29,13,26,185,28*76

$GPGSV,3,2,10,15,38,232,30,17,30,040,22,19,61,049,29,24,56,322,31*7A

$GPGSV,3,3,10,25,05,272,23,28,08,068,24*76

$GLGSV,3,1,09,78,54,016,27,77,31,095,16,79,27,326,21,69,09,289,14*64

$GLGSV,3,2,09,88,66,059,21,87,18,029,26,,,,25,68,05,241,18*59

$GLGSV,3,3,09,82,,,*66

$GPGGA,142955.0,3206.203598,N,03511.033117,E,1,10,0.7,589.8,M,19.0,M,,*53

$GNGNS,142955.0,3206.203598,N,03511.033117,E,AA,16,0.7,589.8,19.0,,*61

$GPVTG,254.2,T,251.2,M,47.8,N,88.5,K,A*28

$GPRMC,142955.0,A,3206.203598,N,03511.033117,E,47.8,254.2,310316,3.0,E,A*37

$GPGSA,A,2,02,06,12,13,15,17,19,24,25,28,,,1.0,0.7,0.7*36

$GNGSA,A,2,02,06,12,13,15,17,19,24,25,28,,,1.0,0.7,0.7*28

$GNGSA,A,2,68,69,77,78,87,88,,,,,,,1.0,0.7,0.7*2D

$GPGSV,3,1,10,02,22,156,33,06,32,109,21,12,35,291,30,13,26,185,27*75

$GPGSV,3,2,10,15,38,232,31,17,30,040,22,19,61,049,28,24,56,322,32*79

$GPGSV,3,3,10,25,05,272,20,28,08,068,25*74

$GLGSV,3,1,09,78,54,016,24,77,31,095,16,79,27,326,20,69,09,289,22*63

$GLGSV,3,2,09,88,66,059,21,87,18,029,26,,,,23,68,05,241,18*5F

$GLGSV,3,3,09,82,,,*66

$GPGGA,142956.0,3206.199527,N,03511.018346,E,1,10,0.7,587.8,M,19.0,M,,*55

$GNGNS,142956.0,3206.199527,N,03511.018346,E,AA,16,0.7,587.8,19.0,,*67

$GPVTG,252.6,T,249.6,M,48.1,N,89.1,K,A*24

$GPRMC,142956.0,A,3206.199527,N,03511.018346,E,48.1,252.6,310316,3.0,E,A*3B

$GPGSA,A,2,02,06,12,13,15,17,19,24,25,28,,,1.0,0.7,0.7*36

$GNGSA,A,2,02,06,12,13,15,17,19,24,25,28,,,1.0,0.7,0.7*28

$GNGSA,A,2,68,69,77,78,87,88,,,,,,,1.0,0.7,0.7*2D

$GPGSV,3,1,10,02,22,156,32,06,32,109,22,12,35,291,31,13,26,185,29*78

$GPGSV,3,2,10,15,38,232,33,17,30,040,26,19,61,049,27,24,56,322,33*71

$GPGSV,3,3,10,25,05,272,20,28,08,068,26*77

$GLGSV,3,1,09,78,54,016,23,77,31,095,16,79,27,326,20,69,09,289,22*64

$GLGSV,3,2,09,88,66,059,23,87,18,029,28,,,,24,68,05,241,17*5B

$GLGSV,3,3,09,82,,,*66

$GPGGA,142957.0,3206.194919,N,03511.003695,E,1,10,0.7,586.5,M,19.0,M,,*55

$GNGNS,142957.0,3206.194919,N,03511.003695,E,AA,16,0.7,586.5,19.0,,*67

$GPVTG,251.1,T,248.1,M,48.0,N,89.0,K,A*26

$GPRMC,142957.0,A,3206.194919,N,03511.003695,E,48.0,251.1,310316,3.0,E,A*32

$GPGSA,A,2,02,06,12,13,15,17,19,24,25,28,,,1.0,0.7,0.7*36

$GNGSA,A,2,02,06,12,13,15,17,19,24,25,28,,,1.0,0.7,0.7*28

$GNGSA,A,2,68,69,77,78,87,88,,,,,,,1.0,0.7,0.7*2D

$GPGSV,3,1,10,02,22,156,34,06,32,109,16,12,35,291,30,13,26,185,31*71

$GPGSV,3,2,10,15,38,232,33,17,30,040,25,19,61,049,28,24,56,322,32*7C

$GPGSV,3,3,10,25,05,272,20,28,08,068,24*75

$GLGSV,3,1,09,78,54,016,21,77,31,095,16,79,27,326,18,69,09,289,21*6E

$GLGSV,3,2,09,88,66,059,22,87,18,029,29,,,,21,68,05,241,22*58

$GLGSV,3,3,09,82,,,*66

$GPGGA,142958.0,3206.190605,N,03510.989115,E,1,10,0.7,585.3,M,19.0,M,,*5C

$GNGNS,142958.0,3206.190605,N,03510.989115,E,AA,16,0.7,585.3,19.0,,*6E

$GPVTG,249.9,T,246.9,M,48.0,N,89.0,K,A*21

$GPRMC,142958.0,A,3206.190605,N,03510.989115,E,48.0,249.9,310316,3.0,E,A*3F

$GPGSA,A,2,02,06,12,13,15,17,19,24,25,28,,,1.0,0.7,0.7*36

$GNGSA,A,2,02,06,12,13,15,17,19,24,25,28,,,1.0,0.7,0.7*28

$GNGSA,A,2,68,69,77,78,87,88,,,,,,,1.0,0.7,0.7*2D

$GPGSV,3,1,10,02,22,156,32,06,32,109,16,12,35,291,29,13,26,185,30*7E

$GPGSV,3,2,10,15,38,232,33,17,30,040,24,19,61,049,26,24,56,322,31*70

$GPGSV,3,3,10,25,05,272,15,28,08,068,19*7D

$GLGSV,3,1,09,78,54,016,21,77,31,095,15,79,27,326,20,69,09,289,19*6D

$GLGSV,3,2,09,88,66,059,21,87,18,029,28,,,,23,68,05,241,21*5B

$GLGSV,3,3,09,82,,,*66

$GPGGA,142959.0,3206.185395,N,03510.974452,E,1,10,0.7,584.4,M,19.0,M,,*57

$GNGNS,142959.0,3206.185395,N,03510.974452,E,AA,16,0.7,584.4,19.0,,*65

$GPVTG,248.7,T,245.8,M,48.4,N,89.6,K,A*2E

$GPRMC,142959.0,A,3206.185395,N,03510.974452,E,48.4,248.7,310316,3.0,E,A*39

$GPGSA,A,2,02,06,12,13,15,17,19,24,25,28,,,1.0,0.7,0.7*36

$GNGSA,A,2,02,06,12,13,15,17,19,24,25,28,,,1.0,0.7,0.7*28

$GNGSA,A,2,68,69,77,78,87,88,,,,,,,1.0,0.7,0.7*2D

$GPGSV,3,1,10,02,22,156,34,06,32,109,15,12,35,291,28,13,26,185,33*79

$GPGSV,3,2,10,15,38,232,36,17,30,040,27,19,61,049,29,24,56,322,32*7A

$GPGSV,3,3,10,28,08,068,21,25,05,272,*72

$GLGSV,3,1,09,78,54,016,21,77,31,095,22,79,27,326,21,69,09,289,19*68

$GLGSV,3,2,09,88,66,059,20,87,18,029,28,,,,26,68,05,241,22*5C

$GLGSV,3,3,09,82,,,*66

$GPGGA,143000.0,3206.179977,N,03510.959796,E,1,10,0.7,582.9,M,19.0,M,,*59

$GNGNS,143000.0,3206.179977,N,03510.959796,E,AA,16,0.7,582.9,19.0,,*6B

$GPVTG,247.3,T,244.3,M,48.6,N,90.0,K,A*23

$GPRMC,143000.0,A,3206.179977,N,03510.959796,E,48.6,247.3,310316,3.0,E,A*35

$GPGSA,A,2,02,06,12,13,15,17,19,24,25,28,,,1.0,0.7,0.7*36

$GNGSA,A,2,02,06,12,13,15,17,19,24,25,28,,,1.0,0.7,0.7*28

$GNGSA,A,2,68,69,77,78,87,88,,,,,,,1.0,0.7,0.7*2D

$GPGSV,3,1,10,02,22,156,30,06,32,109,15,12,35,291,24,13,26,185,30*72

$GPGSV,3,2,10,15,38,232,33,17,30,040,22,19,61,049,24,24,56,322,30*75

$GPGSV,3,3,10,28,08,068,21,25,05,272,*72

$GLGSV,3,1,09,78,54,016,18,77,31,095,18,79,27,326,20,69,09,289,19*6A

$GLGSV,3,2,09,88,66,059,20,87,18,029,25,,,,25,68,05,241,20*50

$GLGSV,3,3,09,82,,,*66

$GPGGA,143001.0,3206.174912,N,03510.945787,E,1,10,0.7,581.5,M,19.0,M,,*54

$GNGNS,143001.0,3206.174912,N,03510.945787,E,AA,16,0.7,581.5,19.0,,*66

$GPVTG,246.9,T,243.9,M,48.6,N,90.1,K,A*24

$GPRMC,143001.0,A,3206.174912,N,03510.945787,E,48.6,246.9,310316,3.0,E,A*3C

$GPGSA,A,2,02,06,12,13,15,17,19,24,25,28,,,1.0,0.7,0.7*36

$GNGSA,A,2,02,06,12,13,15,17,19,24,25,28,,,1.0,0.7,0.7*28

$GNGSA,A,2,68,69,77,78,87,88,,,,,,,1.0,0.7,0.7*2D

$GPGSV,3,1,10,02,22,156,28,06,32,109,15,12,35,291,24,13,26,185,25*7F

$GPGSV,3,2,10,15,38,232,30,17,30,040,22,19,61,049,21,24,56,322,29*7B

$GPGSV,3,3,10,28,08,068,17,25,05,272,*77

$GLGSV,3,1,09,78,54,016,18,77,31,095,18,79,27,326,20,69,09,289,16*65

$GLGSV,3,2,09,88,66,059,17,87,18,029,25,,,,23,68,05,241,19*58

$GLGSV,3,3,09,82,,,*66

$GPGGA,143002.0,3206.169878,N,03510.930799,E,1,10,0.7,580.7,M,19.0,M,,*58

$GNGNS,143002.0,3206.169878,N,03510.930799,E,AA,16,0.7,580.7,19.0,,*6A

$GPVTG,248.2,T,245.2,M,47.8,N,88.5,K,A*20

$GPRMC,143002.0,A,3206.169878,N,03510.930799,E,47.8,248.2,310316,3.0,E,A*37

$GPGSA,A,2,02,06,12,13,15,17,19,24,25,28,,,1.0,0.7,0.7*36

$GNGSA,A,2,02,06,12,13,15,17,19,24,25,28,,,1.0,0.7,0.7*28

$GNGSA,A,2,68,69,77,78,87,88,,,,,,,1.0,0.7,0.7*2D

$GPGSV,3,1,10,02,22,156,28,06,32,109,16,12,35,291,25,13,26,185,21*79

$GPGSV,3,2,10,15,38,232,29,17,30,040,21,19,61,049,22,24,56,322,29*73

