$GPGSV,3,1,09,03,21,147,25,06,23,248,26,07,70,278,28,09,61,021,29*7B

$GPGSV,3,2,09,16,17,043,18,23,43,071,22,28,02,189,19,30,42,241,30*7F

$GPGSV,3,3,09,02,12,293,*49

$GLGSV,2,1,06,74,28,028,13,66,11,324,24,75,81,334,26,65,64,355,27*6E

$GLGSV,2,2,06,71,02,133,16,72,50,115,22*64

$GPGGA,,,,,,0,,,,,,,,*66

$GNGNS,,,,,,NN,,,,,,*53

$GPVTG,,T,,M,,N,,K,N*2C

$GPRMC,,V,,,,,,,,,,N*53

$GPGSA,A,1,,,,,,,,,,,,,,,*1E

$GNGSA,A,1,,,,,,,,,,,,,,,*00

$GPGSV,3,1,09,03,21,147,25,06,23,248,26,07,70,278,28,09,61,021,29*7B

$GPGSV,3,2,09,16,17,043,18,23,43,071,22,28,02,189,19,30,42,241,30*7F

$GPGSV,3,3,09,02,12,293,*49

$GLGSV,2,1,06,74,28,028,13,66,11,324,24,75,81,334,26,65,64,355,27*6E

$GLGSV,2,2,06,71,02,133,16,72,50,115,22*64

$GPGGA,,,,,,0,,,,,,,,*66

$GNGNS,,,,,,NN,,,,,,*53

$GPVTG,,T,,M,,N,,K,N*2C

$GPRMC,,V,,,,,,,,,,N*53

$GPGSA,A,1,,,,,,,,,,,,,,,*1E

$GNGSA,A,1,,,,,,,,,,,,,,,*00

$GPGSV,3,1,10,09,61,021,33,02,12,293,,03,21,147,,05,,,*49

$GPGSV,3,2,10,06,23,248,,07,70,279,,16,17,043,,23,42,071,*7B

$GPGSV,3,3,10,28,02,189,,30,42,243,*70

$GLGSV,2,1,06,75,80,340,22,65,64,357,22,72,49,116,22,74,27,028,*6F

$GLGSV,2,2,06,66,13,324,,71,02,133,*61

$GPGGA,,,,,,0,,,,,,,,*66

$GNGNS,,,,,,NN,,,,,,*53

$GPVTG,,T,,M,,N,,K,N*2C

$GPRMC,,V,,,,,,,,,,N*53

$GPGSA,A,1,,,,,,,,,,,,,,,*1E

$GNGSA,A,1,,,,,,,,,,,,,,,*00

$GPGSV,3,1,10,09,61,021,33,02,12,293,,03,21,147,,05,,,*49

$GPGSV,3,2,10,06,23,248,,07,70,279,,16,17,043,,23,42,071,*7B

$GPGSV,3,3,10,28,02,189,,30,42,243,*70

$GLGSV,2,1,06,75,80,340,22,65,64,357,22,72,49,116,22,74,27,028,*6F

$GLGSV,2,2,06,66,13,324,,71,02,133,*61

$GPGGA,,,,,,0,,,,,,,,*66

$GNGNS,,,,,,NN,,,,,,*53

$GPVTG,,T,,M,,N,,K,N*2C

$GPRMC,,V,,,,,,,,,,N*53

$GPGSA,A,1,,,,,,,,,,,,,,,*1E

$GNGSA,A,1,,,,,,,,,,,,,,,*00

$GPGSV,3,1,10,03,21,147,26,07,70,279,27,09,61,021,34,16,17,043,20*7B

$GPGSV,3,2,10,23,42,071,27,30,42,243,33,02,12,293,,05,,,*41

$GPGSV,3,3,10,06,23,248,,28,02,189,*79

$GLGSV,2,1,06,66,13,324,25,75,80,340,21,65,64,357,24,72,49,116,26*62

$GLGSV,2,2,06,74,27,028,,71,02,133,*6A

$GPGGA,075706.0,3205.973659,N,03512.308917,E,1,06,1.0,703.2,M,19.0,M,,*54

$GNGNS,075706.0,3205.973659,N,03512.308917,E,AA,10,1.0,703.2,19.0,,*67

$GPVTG,131.7,T,128.7,M,0.0,N,0.0,K,A*2B

$GPRMC,075706.0,A,3205.973659,N,03512.308917,E,0.0,131.7,310316,3.0,E,A*05

$GPGSA,A,2,03,07,09,16,23,30,,,,,,,1.2,1.0,0.8*31

$GNGSA,A,2,03,07,09,16,23,30,,,,,,,1.2,1.0,0.8*2F

$GNGSA,A,2,65,66,72,75,,,,,,,,,1.2,1.0,0.8*23

$GPGSV,3,1,10,03,21,147,26,07,70,279,27,09,61,021,34,16,17,043,20*7B

$GPGSV,3,2,10,23,42,071,27,30,42,243,33,02,12,293,,05,,,*41

$GPGSV,3,3,10,06,23,248,,28,02,189,*79

$GLGSV,2,1,06,66,13,324,25,75,80,340,21,65,64,357,24,72,49,116,26*62

$GLGSV,2,2,06,74,27,028,,71,02,133,*6A

$GPGGA,,,,,,0,,,,,,,,*66

$GNGNS,,,,,,NN,,,,,,*53

$GPVTG,,T,,M,,N,,K,N*2C

$GPRMC,,V,,,,,,,,,,N*53

$GPGSA,A,1,,,,,,,,,,,,,,,*1E

$GNGSA,A,1,,,,,,,,,,,,,,,*00

$GPGSV,3,1,10,03,21,147,32,02,12,293,,05,,,,06,23,248,*4C

$GPGSV,3,2,10,07,70,279,,09,61,022,,16,17,043,,23,42,071,*7C

$GPGSV,3,3,10,28,02,189,,30,42,243,*70

$GLGSV,2,1,06,74,27,028,,66,13,324,,75,80,340,,65,64,357,*66

$GLGSV,2,2,06,71,02,133,,72,49,116,*68

$GPGGA,,,,,,0,,,,,,,,*66

$GNGNS,,,,,,NN,,,,,,*53

$GPVTG,,T,,M,,N,,K,N*2C

$GPRMC,,V,,,,,,,,,,N*53

$GPGSA,A,1,,,,,,,,,,,,,,,*1E

$GNGSA,A,1,,,,,,,,,,,,,,,*00

$GPGSV,3,1,10,03,21,147,31,23,42,071,25,30,42,243,31,02,12,293,*77

$GPGSV,3,2,10,05,,,,06,23,248,,07,70,279,,09,61,022,*47

$GPGSV,3,3,10,16,17,043,,28,02,189,*76

$GLGSV,2,1,06,65,64,357,24,74,27,028,,66,13,324,,75,80,340,*60

$GLGSV,2,2,06,71,02,133,,72,49,116,*68

$GPGGA,,,,,,0,,,,,,,,*66

$GNGNS,,,,,,NN,,,,,,*53

$GPVTG,,T,,M,,N,,K,N*2C

$GPRMC,,V,,,,,,,,,,N*53

$GPGSA,A,1,,,,,,,,,,,,,,,*1E

$GNGSA,A,1,,,,,,,,,,,,,,,*00

$GPGSV,3,1,10,03,21,147,31,23,42,071,25,30,42,243,31,02,12,293,*77

$GPGSV,3,2,10,05,,,,06,23,248,,07,70,279,,09,61,022,*47

$GPGSV,3,3,10,16,17,043,,28,02,189,*76

$GLGSV,2,1,06,65,64,357,24,74,27,028,,66,13,324,,75,80,340,*60

$GLGSV,2,2,06,71,02,133,,72,49,116,*68

$GPGGA,,,,,,0,,,,,,,,*66

$GNGNS,,,,,,NN,,,,,,*53

$GPVTG,,T,,M,,N,,K,N*2C

$GPRMC,,V,,,,,,,,,,N*53

$GPGSA,A,1,,,,,,,,,,,,,,,*1E

$GNGSA,A,1,,,,,,,,,,,,,,,*00

$GPGSV,3,1,10,03,21,147,30,06,23,248,19,07,70,279,29,09,61,022,29*78

$GPGSV,3,2,10,23,42,071,23,28,02,189,18,30,42,243,29,02,12,293,*7A

$GPGSV,3,3,10,05,,,,16,17,043,*4B

$GLGSV,2,1,06,66,13,324,28,65,64,357,23,72,49,116,24,74,27,028,*68

$GLGSV,2,2,06,75,80,341,,71,02,133,*6A

$GPGGA,075726.0,3205.973219,N,03512.309201,E,1,06,1.0,705.1,M,19.0,M,,*5E

$GNGNS,075726.0,3205.973219,N,03512.309201,E,AA,09,1.0,705.1,19.0,,*65

$GPVTG,131.7,T,128.7,M,0.0,N,0.0,K,A*2B

$GPRMC,075726.0,A,3205.973219,N,03512.309201,E,0.0,131.7,310316,3.0,E,A*0A

$GPGSA,A,2,03,06,07,09,23,30,,,,,,,1.3,1.0,0.8*31

$GNGSA,A,2,03,06,07,09,23,30,,,,,,,1.3,1.0,0.8*2F

$GNGSA,A,2,65,66,72,,,,,,,,,,1.3,1.0,0.8*20

$GPGSV,3,1,10,03,21,147,27,06,23,248,24,07,70,279,29,09,61,022,26*7F

$GPGSV,3,2,10,16,17,043,16,23,42,071,22,28,02,189,19,30,42,243,30*7A

$GPGSV,3,3,10,02,12,293,,05,,,*44

$GLGSV,2,1,06,66,13,324,24,65,64,357,25,72,49,116,25,74,27,028,*63

$GLGSV,2,2,06,75,80,341,,71,02,133,*6A

$GPGGA,075727.0,3205.973677,N,03512.309163,E,1,07,0.9,704.2,M,19.0,M,,*5F

$GNGNS,075727.0,3205.973677,N,03512.309163,E,AA,10,0.9,704.2,19.0,,*6D

$GPVTG,131.7,T,128.7,M,0.0,N,0.0,K,A*2B

$GPRMC,075727.0,A,3205.973677,N,03512.309163,E,0.0,131.7,310316,3.0,E,A*00

$GPGSA,A,2,03,06,07,09,16,23,30,,,,,,1.2,0.9,0.8*3F

$GNGSA,A,2,03,06,07,09,16,23,30,,,,,,1.2,0.9,0.8*21

$GNGSA,A,2,65,66,72,,,,,,,,,,1.2,0.9,0.8*29

$GPGSV,3,1,10,03,21,147,29,06,23,248,31,07,70,279,32,09,61,022,27*7E

$GPGSV,3,2,10,16,17,043,18,23,42,071,26,28,02,189,20,30,42,243,33*79

$GPGSV,3,3,10,02,12,293,,05,,,*44

$GLGSV,2,1,06,66,13,324,28,75,80,341,18,65,64,357,25,72,49,116,28*6B

$GLGSV,2,2,06,74,27,028,,71,02,133,*6A

$GPGGA,075728.0,3205.973664,N,03512.309159,E,1,07,0.9,705.0,M,19.0,M,,*58

$GNGNS,075728.0,3205.973664,N,03512.309159,E,AA,11,0.9,705.0,19.0,,*6B

$GPVTG,131.7,T,128.7,M,0.0,N,0.0,K,A*2B

$GPRMC,075728.0,A,3205.973664,N,03512.309159,E,0.0,131.7,310316,3.0,E,A*04

$GPGSA,A,2,03,06,07,09,16,23,30,,,,,,1.2,0.9,0.8*3F

$GNGSA,A,2,03,06,07,09,16,23,30,,,,,,1.2,0.9,0.8*21

$GNGSA,A,2,65,66,72,75,,,,,,,,,1.2,0.9,0.8*2B

$GPGSV,3,1,10,03,21,147,17,06,23,248,26,07,70,279,23,09,61,022,29*7B

$GPGSV,3,2,10,16,17,043,17,23,42,071,20,28,02,189,19,30,42,243,30*79

$GPGSV,3,3,10,02,12,293,,05,,,*44

$GLGSV,2,1,06,66,13,324,22,75,80,341,17,65,64,357,22,72,49,116,19*6B

$GLGSV,2,2,06,74,27,028,,71,02,133,*6A

$GPGGA,075729.0,3205.973618,N,03512.309134,E,1,07,0.9,704.6,M,19.0,M,,*5E

$GNGNS,075729.0,3205.973618,N,03512.309134,E,AA,11,0.9,704.6,19.0,,*6D

$GPVTG,131.7,T,128.7,M,0.0,N,0.0,K,A*2B

$GPRMC,075729.0,A,3205.973618,N,03512.309134,E,0.0,131.7,310316,3.0,E,A*05

$GPGSA,A,2,03,06,07,09,16,23,30,,,,,,1.2,0.9,0.8*3F

$GNGSA,A,2,03,06,07,09,16,23,30,,,,,,1.2,0.9,0.8*21

$GNGSA,A,2,65,66,72,75,,,,,,,,,1.2,0.9,0.8*2B

$GPGSV,3,1,10,03,21,147,17,06,23,248,22,07,70,279,24,09,61,022,24*75

$GPGSV,3,2,10,16,17,043,16,23,42,071,18,28,02,189,18,30,42,243,28*7B

$GPGSV,3,3,10,02,12,293,,05,,,*44

$GLGSV,2,1,06,66,13,324,16,75,80,341,17,65,64,357,22,72,49,116,21*67

$GLGSV,2,2,06,74,27,028,,71,02,133,*6A

$GPGGA,075730.0,3205.973601,N,03512.309204,E,1,07,0.9,704.4,M,19.0,M,,*5C

$GNGNS,075730.0,3205.973601,N,03512.309204,E,AA,11,0.9,704.4,19.0,,*6F

$GPVTG,131.7,T,128.7,M,0.0,N,0.0,K,A*2B

$GPRMC,075730.0,A,3205.973601,N,03512.309204,E,0.0,131.7,310316,3.0,E,A*05

$GPGSA,A,2,03,06,07,09,16,23,30,,,,,,1.2,0.9,0.8*3F

$GNGSA,A,2,03,06,07,09,16,23,30,,,,,,1.2,0.9,0.8*21

$GNGSA,A,2,65,66,72,75,,,,,,,,,1.2,0.9,0.8*2B

$GPGSV,3,1,10,03,21,147,22,06,23,248,28,07,70,279,29,09,61,022,29*79

$GPGSV,3,2,10,16,17,043,16,23,42,071,18,28,02,189,18,30,42,243,34*76

$GPGSV,3,3,10,02,12,293,,05,,,*44

$GLGSV,2,1,06,66,13,324,28,75,80,341,16,65,64,357,22,72,49,116,23*69

$GLGSV,2,2,06,74,27,028,,71,02,133,*6A

$GPGGA,075731.0,3205.973522,N,03512.309194,E,1,07,0.9,705.3,M,19.0,M,,*53

$GNGNS,075731.0,3205.973522,N,03512.309194,E,AA,11,0.9,705.3,19.0,,*60

$GPVTG,131.7,T,128.7,M,0.0,N,0.0,K,A*2B

$GPRMC,075731.0,A,3205.973522,N,03512.309194,E,0.0,131.7,310316,3.0,E,A*0C

$GPGSA,A,2,03,06,07,09,16,23,30,,,,,,1.2,0.9,0.8*3F

$GNGSA,A,2,03,06,07,09,16,23,30,,,,,,1.2,0.9,0.8*21

$GNGSA,A,2,65,66,72,75,,,,,,,,,1.2,0.9,0.8*2B

$GPGSV,3,1,10,03,21,147,30,06,23,248,31,07,70,279,30,09,61,022,32*70

$GPGSV,3,2,10,16,17,043,16,23,42,071,18,28,02,189,18,30,42,243,37*75

$GPGSV,3,3,10,02,12,293,,05,,,*44

$GLGSV,2,1,06,66,13,324,29,75,80,341,16,65,64,357,26,72,49,116,21*6E

$GLGSV,2,2,06,74,27,028,,71,02,133,*6A

$GPGGA,075732.0,3205.973442,N,03512.309209,E,1,07,0.9,705.1,M,19.0,M,,*52

$GNGNS,075732.0,3205.973442,N,03512.309209,E,AA,11,0.9,705.1,19.0,,*61

$GPVTG,131.7,T,128.7,M,0.0,N,0.0,K,A*2B

$GPRMC,075732.0,A,3205.973442,N,03512.309209,E,0.0,131.7,310316,3.0,E,A*0F

$GPGSA,A,2,03,06,07,09,16,23,30,,,,,,1.2,0.9,0.8*3F

$GNGSA,A,2,03,06,07,09,16,23,30,,,,,,1.2,0.9,0.8*21

$GNGSA,A,2,65,66,72,75,,,,,,,,,1.2,0.9,0.8*2B

$GPGSV,3,1,10,03,21,147,29,06,23,248,30,07,70,279,29,09,61,022,31*72

$GPGSV,3,2,10,16,17,043,16,23,42,071,15,28,02,189,18,30,42,243,36*79

$GPGSV,3,3,10,02,12,293,,05,,,*44

$GLGSV,2,1,06,66,13,324,30,75,80,341,18,65,64,357,25,72,49,116,19*60

$GLGSV,2,2,06,74,27,028,,71,02,133,*6A

$GPGGA,075733.0,3205.973320,N,03512.309132,E,1,07,0.9,705.1,M,19.0,M,,*5B

$GNGNS,075733.0,3205.973320,N,03512.309132,E,AA,11,0.9,705.1,19.0,,*68

$GPVTG,131.7,T,128.7,M,0.0,N,0.0,K,A*2B

$GPRMC,075733.0,A,3205.973320,N,03512.309132,E,0.0,131.7,310316,3.0,E,A*06

$GPGSA,A,2,03,06,07,09,16,23,30,,,,,,1.2,0.9,0.8*3F

$GNGSA,A,2,03,06,07,09,16,23,30,,,,,,1.2,0.9,0.8*21

$GNGSA,A,2,65,66,72,75,,,,,,,,,1.2,0.9,0.8*2B

$GPGSV,3,1,10,03,21,147,29,06,23,248,29,07,70,279,29,09,61,022,28*72

$GPGSV,3,2,10,16,17,043,17,23,42,071,24,28,02,189,18,30,42,243,37*7B

$GPGSV,3,3,10,02,12,293,,05,,,*44

$GLGSV,2,1,06,74,27,028,13,66,13,324,30,75,80,341,23,65,64,357,27*62

$GLGSV,2,2,06,72,49,116,25,71,02,133,*6F

$GPGGA,075734.0,3205.973215,N,03512.309043,E,1,07,0.9,705.5,M,19.0,M,,*58

$GNGNS,075734.0,3205.973215,N,03512.309043,E,AA,11,0.9,705.5,19.0,,*6B

$GPVTG,131.7,T,128.7,M,0.0,N,0.0,K,A*2B

$GPRMC,075734.0,A,3205.973215,N,03512.309043,E,0.0,131.7,310316,3.0,E,A*01

$GPGSA,A,2,03,06,07,09,16,23,30,,,,,,1.2,0.9,0.8*3F

$GNGSA,A,2,03,06,07,09,16,23,30,,,,,,1.2,0.9,0.8*21

$GNGSA,A,2,65,66,72,75,,,,,,,,,1.2,0.9,0.8*2B

$GPGSV,3,1,10,03,21,147,28,06,23,248,31,07,70,279,27,09,61,022,28*74

$GPGSV,3,2,10,16,17,043,18,23,42,071,20,28,02,189,17,30,42,243,36*7E

$GPGSV,3,3,10,02,12,293,,05,,,*44

$GLGSV,2,1,06,74,27,028,14,66,13,324,29,75,80,341,23,65,64,357,28*62

$GLGSV,2,2,06,72,49,116,25,71,02,133,*6F

$GPGGA,075735.0,3205.973076,N,03512.309031,E,1,07,0.9,705.9,M,19.0,M,,*57

$GNGNS,075735.0,3205.973076,N,03512.309031,E,AA,11,0.9,705.9,19.0,,*64

$GPVTG,131.7,T,128.7,M,0.0,N,0.0,K,A*2B

$GPRMC,075735.0,A,3205.973076,N,03512.309031,E,0.0,131.7,310316,3.0,E,A*02

$GPGSA,A,2,03,06,07,09,16,23,30,,,,,,1.2,0.9,0.8*3F

$GNGSA,A,2,03,06,07,09,16,23,30,,,,,,1.2,0.9,0.8*21

$GNGSA,A,2,65,66,72,75,,,,,,,,,1.2,0.9,0.8*2B

$GPGSV,3,1,10,03,21,147,28,06,23,248,33,07,70,279,26,09,61,022,27*78

$GPGSV,3,2,10,16,17,043,22,23,42,071,23,28,02,189,17,30,42,243,36*74

$GPGSV,3,3,10,02,12,293,,05,,,*44

$GLGSV,2,1,06,74,27,028,15,66,13,324,29,75,80,341,15,65,64,357,27*69

$GLGSV,2,2,06,72,49,116,18,71,02,133,*61

$GPGGA,075736.0,3205.973017,N,03512.308963,E,1,07,0.9,706.2,M,19.0,M,,*54

$GNGNS,075736.0,3205.973017,N,03512.308963,E,AA,11,0.9,706.2,19.0,,*67

$GPVTG,131.7,T,128.7,M,0.0,N,0.0,K,A*2B

$GPRMC,075736.0,A,3205.973017,N,03512.308963,E,0.0,131.7,310316,3.0,E,A*09

$GPGSA,A,2,03,06,07,09,16,23,30,,,,,,1.2,0.9,0.8*3F

$GNGSA,A,2,03,06,07,09,16,23,30,,,,,,1.2,0.9,0.8*21

$GNGSA,A,2,65,66,72,75,,,,,,,,,1.2,0.9,0.8*2B

$GPGSV,3,1,10,03,21,147,28,06,23,248,33,07,70,279,26,09,61,022,23*7C

$GPGSV,3,2,10,16,17,043,22,23,42,071,23,28,02,189,17,30,42,243,37*75

$GPGSV,3,3,10,02,12,293,,05,,,*44

$GLGSV,2,1,06,74,27,028,15,66,13,324,28,75,80,341,15,65,64,357,28*67

$GLGSV,2,2,06,72,49,116,18,71,02,133,*61

$GPGGA,075737.0,3205.973021,N,03512.308959,E,1,07,0.9,706.2,M,19.0,M,,*59

$GNGNS,075737.0,3205.973021,N,03512.308959,E,AA,11,0.9,706.2,19.0,,*6A

$GPVTG,131.7,T,128.7,M,0.0,N,0.0,K,A*2B

$GPRMC,075737.0,A,3205.973021,N,03512.308959,E,0.0,131.7,310316,3.0,E,A*04

$GPGSA,A,2,03,06,07,09,16,23,30,,,,,,1.2,0.9,0.8*3F

$GNGSA,A,2,03,06,07,09,16,23,30,,,,,,1.2,0.9,0.8*21

$GNGSA,A,2,65,66,72,75,,,,,,,,,1.2,0.9,0.8*2B

$GPGSV,3,1,10,03,21,147,31,06,23,248,33,07,70,279,27,09,61,022,24*72

$GPGSV,3,2,10,16,17,043,22,23,42,071,25,28,02,189,17,30,42,243,36*72

$GPGSV,3,3,10,02,12,293,,05,,,*44

$GLGSV,2,1,06,74,27,028,19,66,13,324,30,75,80,341,17,65,64,357,29*61

$GLGSV,2,2,06,72,49,116,23,71,02,133,*69

$GPGGA,075738.0,3205.973011,N,03512.308954,E,1,07,0.9,706.4,M,19.0,M,,*5E

$GNGNS,075738.0,3205.973011,N,03512.308954,E,AA,11,0.9,706.4,19.0,,*6D

$GPVTG,131.7,T,128.7,M,0.0,N,0.0,K,A*2B

$GPRMC,075738.0,A,3205.973011,N,03512.308954,E,0.0,131.7,310316,3.0,E,A*05

$GPGSA,A,2,03,06,07,09,16,23,30,,,,,,1.2,0.9,0.8*3F

$GNGSA,A,2,03,06,07,09,16,23,30,,,,,,1.2,0.9,0.8*21

$GNGSA,A,2,65,66,72,75,,,,,,,,,1.2,0.9,0.8*2B

$GPGSV,3,1,10,02,12,293,16,03,21,147,32,06,23,248,33,07,70,279,27*77

$GPGSV,3,2,10,09,61,022,27,16,17,043,23,23,42,071,23,28,02,189,22*7D

$GPGSV,3,3,10,30,42,243,37,05,,,*49

$GLGSV,2,1,06,74,27,028,19,66,13,324,30,75,80,341,17,65,64,357,29*61

$GLGSV,2,2,06,72,49,116,24,71,02,133,*6E

$GPGGA,075739.0,3205.972965,N,03512.308975,E,1,07,0.9,706.3,M,19.0,M,,*50

$GNGNS,075739.0,3205.972965,N,03512.308975,E,AA,11,0.9,706.3,19.0,,*63

$GPVTG,131.7,T,128.7,M,0.0,N,0.0,K,A*2B

$GPRMC,075739.0,A,3205.972965,N,03512.308975,E,0.0,131.7,310316,3.0,E,A*0C

$GPGSA,A,2,03,06,07,09,16,23,30,,,,,,1.2,0.9,0.8*3F

$GNGSA,A,2,03,06,07,09,16,23,30,,,,,,1.2,0.9,0.8*21

$GNGSA,A,2,65,66,72,75,,,,,,,,,1.2,0.9,0.8*2B

$GPGSV,3,1,10,02,12,293,15,03,21,147,31,06,23,248,27,07,70,279,25*70

$GPGSV,3,2,10,09,61,022,27,16,17,043,23,23,42,071,25,28,02,189,23*7A

$GPGSV,3,3,10,30,42,243,36,05,,,*48

$GLGSV,2,1,06,74,27,028,19,66,13,324,30,75,80,341,18,65,64,357,27*60

$GLGSV,2,2,06,72,49,116,27,71,02,133,*6D

$GPGGA,075740.0,3205.972960,N,03512.308977,E,1,07,0.9,706.3,M,19.0,M,,*59

$GNGNS,075740.0,3205.972960,N,03512.308977,E,AA,11,0.9,706.3,19.0,,*6A

$GPVTG,131.7,T,128.7,M,0.0,N,0.0,K,A*2B

$GPRMC,075740.0,A,3205.972960,N,03512.308977,E,0.0,131.7,310316,3.0,E,A*05

$GPGSA,A,2,03,06,07,09,16,23,30,,,,,,1.2,0.9,0.8*3F

$GNGSA,A,2,03,06,07,09,16,23,30,,,,,,1.2,0.9,0.8*21

$GNGSA,A,2,65,66,72,75,,,,,,,,,1.2,0.9,0.8*2B

$GPGSV,3,1,10,02,12,293,15,03,21,147,31,06,23,248,27,07,70,279,27*72

$GPGSV,3,2,10,09,61,022,26,16,17,043,22,23,42,071,29,28,02,189,24*71

$GPGSV,3,3,10,30,42,243,36,05,,,*48

$GLGSV,2,1,06,74,27,028,15,66,13,324,29,75,80,341,21,65,64,357,27*6E

$GLGSV,2,2,06,72,49,116,30,71,02,133,*6B

$GPGGA,075741.0,3205.972959,N,03512.308976,E,1,07,0.9,706.4,M,19.0,M,,*54

$GNGNS,075741.0,3205.972959,N,03512.308976,E,AA,11,0.9,706.4,19.0,,*67

$GPVTG,131.7,T,128.7,M,0.0,N,0.0,K,A*2B

$GPRMC,075741.0,A,3205.972959,N,03512.308976,E,0.0,131.7,310316,3.0,E,A*0F

$GPGSA,A,2,03,06,07,09,16,23,30,,,,,,1.2,0.9,0.8*3F

$GNGSA,A,2,03,06,07,09,16,23,30,,,,,,1.2,0.9,0.8*21

$GNGSA,A,2,65,66,72,75,,,,,,,,,1.2,0.9,0.8*2B

$GPGSV,3,1,10,02,12,293,16,03,21,147,30,06,23,248,28,07,70,279,28*70

$GPGSV,3,2,10,09,61,022,27,16,17,043,23,23,42,071,28,28,02,189,22*76

$GPGSV,3,3,10,30,42,243,36,05,,,*48

$GLGSV,2,1,06,74,27,028,15,66,13,324,28,75,80,341,21,65,64,357,27*6F

$GLGSV,2,2,06,72,49,116,29,71,02,133,*63

$GPGGA,075742.0,3205.972956,N,03512.308977,E,1,07,0.9,706.4,M,19.0,M,,*59

$GNGNS,075742.0,3205.972956,N,03512.308977,E,AA,11,0.9,706.4,19.0,,*6A

$GPVTG,131.7,T,128.7,M,0.0,N,0.0,K,A*2B

$GPRMC,075742.0,A,3205.972956,N,03512.308977,E,0.0,131.7,310316,3.0,E,A*02

$GPGSA,A,2,03,06,07,09,16,23,30,,,,,,1.2,0.9,0.8*3F

$GNGSA,A,2,03,06,07,09,16,23,30,,,,,,1.2,0.9,0.8*21

$GNGSA,A,2,65,66,72,75,,,,,,,,,1.2,0.9,0.8*2B

$GPGSV,3,1,10,02,12,293,15,03,21,147,30,06,23,248,29,07,70,279,28*72

$GPGSV,3,2,10,09,61,022,27,16,17,043,22,23,42,071,29,28,02,189,25*71

$GPGSV,3,3,10,30,42,243,36,05,,,*48

$GLGSV,2,1,06,74,27,028,15,66,13,324,29,75,80,341,21,65,64,357,27*6E

$GLGSV,2,2,06,72,49,116,29,71,02,133,*63

$GPGGA,075743.0,3205.972955,N,03512.308976,E,1,07,0.9,706.4,M,19.0,M,,*5A

$GNGNS,075743.0,3205.972955,N,03512.308976,E,AA,11,0.9,706.4,19.0,,*69

$GPVTG,131.7,T,128.7,M,0.0,N,0.0,K,A*2B

$GPRMC,075743.0,A,3205.972955,N,03512.308976,E,0.0,131.7,310316,3.0,E,A*01

$GPGSA,A,2,03,06,07,09,16,23,30,,,,,,1.2,0.9,0.8*3F

$GNGSA,A,2,03,06,07,09,16,23,30,,,,,,1.2,0.9,0.8*21

$GNGSA,A,2,65,66,72,75,,,,,,,,,1.2,0.9,0.8*2B

$GPGSV,3,1,10,02,12,293,15,03,21,147,30,06,23,248,28,07,70,279,29*72

$GPGSV,3,2,10,09,61,022,27,16,17,043,21,23,42,071,29,28,02,189,24*73

$GPGSV,3,3,10,30,42,243,36,05,,,*48

$GLGSV,2,1,06,74,27,028,15,66,13,324,28,75,80,341,22,65,64,357,26*6D

$GLGSV,2,2,06,72,49,116,28,71,02,133,*62

$GPGGA,075744.0,3205.972951,N,03512.308976,E,1,07,0.9,706.4,M,19.0,M,,*59

$GNGNS,075744.0,3205.972951,N,03512.308976,E,AA,11,0.9,706.4,19.0,,*6A

$GPVTG,131.7,T,128.7,M,0.0,N,0.0,K,A*2B

$GPRMC,075744.0,A,3205.972951,N,03512.308976,E,0.0,131.7,310316,3.0,E,A*02

$GPGSA,A,2,03,06,07,09,16,23,30,,,,,,1.2,0.9,0.8*3F

$GNGSA,A,2,03,06,07,09,16,23,30,,,,,,1.2,0.9,0.8*21

$GNGSA,A,2,65,66,72,75,,,,,,,,,1.2,0.9,0.8*2B

$GPGSV,3,1,10,02,12,293,15,03,21,147,28,06,23,248,28,07,70,279,27*75

$GPGSV,3,2,10,09,61,022,28,16,17,043,21,23,42,071,27,28,02,189,21*77

$GPGSV,3,3,10,30,42,243,37,05,,,*49

$GLGSV,2,1,06,74,27,028,15,66,13,324,29,75,80,341,19,65,64,357,23*61

$GLGSV,2,2,06,72,49,116,27,71,02,133,*6D

$GPGGA,075745.0,3205.972950,N,03512.308972,E,1,07,0.9,706.4,M,19.0,M,,*5D

$GNGNS,075745.0,3205.972950,N,03512.308972,E,AA,11,0.9,706.4,19.0,,*6E

$GPVTG,131.7,T,128.7,M,0.0,N,0.0,K,A*2B

$GPRMC,075745.0,A,3205.972950,N,03512.308972,E,0.0,131.7,310316,3.0,E,A*06

$GPGSA,A,2,03,06,07,09,16,23,30,,,,,,1.2,0.9,0.8*3F

$GNGSA,A,2,03,06,07,09,16,23,30,,,,,,1.2,0.9,0.8*21

$GNGSA,A,2,65,66,72,75,,,,,,,,,1.2,0.9,0.8*2B

$GPGSV,3,1,10,02,12,293,14,03,21,147,31,06,23,248,28,07,70,279,24*7F

$GPGSV,3,2,10,09,61,022,27,16,17,043,21,23,42,071,24,28,02,189,23*79

$GPGSV,3,3,10,30,42,243,36,05,,,*48

$GLGSV,2,1,06,74,27,028,15,66,13,324,28,75,80,341,16,65,64,357,23*6F

$GLGSV,2,2,06,72,49,116,27,71,02,133,*6D

$GPGGA,075746.0,3205.972948,N,03512.308971,E,1,07,0.9,706.4,M,19.0,M,,*54

$GNGNS,075746.0,3205.972948,N,03512.308971,E,AA,11,0.9,706.4,19.0,,*67

$GPVTG,131.7,T,128.7,M,0.0,N,0.0,K,A*2B

$GPRMC,075746.0,A,3205.972948,N,03512.308971,E,0.0,131.7,310316,3.0,E,A*0F

$GPGSA,A,2,03,06,07,09,16,23,30,,,,,,1.2,0.9,0.8*3F

$GNGSA,A,2,03,06,07,09,16,23,30,,,,,,1.2,0.9,0.8*21

$GNGSA,A,2,65,66,72,75,,,,,,,,,1.2,0.9,0.8*2B

$GPGSV,3,1,10,02,12,293,14,03,21,147,31,06,23,248,29,07,70,279,24*7E

$GPGSV,3,2,10,09,61,022,30,16,17,043,20,23,42,071,20,28,02,189,23*7A

$GPGSV,3,3,10,30,42,243,36,05,,,*48

$GLGSV,2,1,06,74,27,028,15,66,13,324,28,75,80,341,19,65,64,357,26*65

$GLGSV,2,2,06,72,49,116,25,71,02,133,*6F

$GPGGA,075747.0,3205.972951,N,03512.308968,E,1,07,0.9,706.4,M,19.0,M,,*55

$GNGNS,075747.0,3205.972951,N,03512.308968,E,AA,11,0.9,706.4,19.0,,*66

$GPVTG,131.7,T,128.7,M,0.0,N,0.0,K,A*2B

$GPRMC,075747.0,A,3205.972951,N,03512.308968,E,0.0,131.7,310316,3.0,E,A*0E

$GPGSA,A,2,03,06,07,09,16,23,30,,,,,,1.2,0.9,0.8*3F

$GNGSA,A,2,03,06,07,09,16,23,30,,,,,,1.2,0.9,0.8*21

$GNGSA,A,2,65,66,72,75,,,,,,,,,1.2,0.9,0.8*2B

$GPGSV,3,1,10,02,12,293,14,03,21,147,31,06,23,248,29,07,70,279,22*78

$GPGSV,3,2,10,09,61,022,29,16,17,043,22,23,42,071,18,28,02,189,23*7B

$GPGSV,3,3,10,30,42,243,36,05,,,*48

$GLGSV,2,1,06,74,27,028,15,66,13,324,29,75,80,341,17,65,64,357,26*6A

$GLGSV,2,2,06,72,49,116,26,71,02,133,*6C

$GPGGA,075748.0,3205.972948,N,03512.308968,E,1,07,0.9,706.4,M,19.0,M,,*52

$GNGNS,075748.0,3205.972948,N,03512.308968,E,AA,11,0.9,706.4,19.0,,*61

$GPVTG,131.7,T,128.7,M,0.0,N,0.0,K,A*2B

$GPRMC,075748.0,A,3205.972948,N,03512.308968,E,0.0,131.7,310316,3.0,E,A*09

$GPGSA,A,2,03,06,07,09,16,23,30,,,,,,1.2,0.9,0.8*3F

$GNGSA,A,2,03,06,07,09,16,23,30,,,,,,1.2,0.9,0.8*21

$GNGSA,A,2,65,66,72,75,,,,,,,,,1.2,0.9,0.8*2B

$GPGSV,3,1,10,02,12,293,14,03,21,147,31,06,23,248,30,07,70,279,24*76

$GPGSV,3,2,10,09,61,022,26,16,17,043,22,23,42,071,21,28,02,189,19*77

$GPGSV,3,3,10,30,42,243,36,05,,,*48

$GLGSV,2,1,06,74,27,028,13,66,13,324,29,75,80,341,17,65,64,357,26*6C

$GLGSV,2,2,06,72,49,116,26,71,02,133,*6C

$GPGGA,075749.0,3205.972946,N,03512.308966,E,1,07,0.9,706.4,M,19.0,M,,*53

$GNGNS,075749.0,3205.972946,N,03512.308966,E,AA,11,0.9,706.4,19.0,,*60

$GPVTG,131.7,T,128.7,M,0.0,N,0.0,K,A*2B

$GPRMC,075749.0,A,3205.972946,N,03512.308966,E,0.0,131.7,310316,3.0,E,A*08

$GPGSA,A,2,03,06,07,09,16,23,30,,,,,,1.2,0.9,0.8*3F

$GNGSA,A,2,03,06,07,09,16,23,30,,,,,,1.2,0.9,0.8*21

$GNGSA,A,2,65,66,72,75,,,,,,,,,1.2,0.9,0.8*2B

$GPGSV,3,1,10,02,12,293,14,03,21,147,30,06,23,248,28,07,70,279,27*7D

$GPGSV,3,2,10,09,61,022,25,16,17,043,22,23,42,071,21,28,02,189,23*7D

$GPGSV,3,3,10,30,42,243,36,05,,,*48

$GLGSV,2,1,06,74,27,028,13,66,13,324,29,75,80,341,17,65,64,357,25*6F

$GLGSV,2,2,06,72,49,116,27,71,02,133,*6D

$GPGGA,075750.0,3205.972943,N,03512.308967,E,1,07,0.9,706.4,M,19.0,M,,*5F

$GNGNS,075750.0,3205.972943,N,03512.308967,E,AA,11,0.9,706.4,19.0,,*6C

$GPVTG,131.7,T,128.7,M,0.0,N,0.0,K,A*2B

$GPRMC,075750.0,A,3205.972943,N,03512.308967,E,0.0,131.7,310316,3.0,E,A*04

$GPGSA,A,2,03,06,07,09,16,23,30,,,,,,1.2,0.9,0.8*3F

$GNGSA,A,2,03,06,07,09,16,23,30,,,,,,1.2,0.9,0.8*21

$GNGSA,A,2,65,66,72,75,,,,,,,,,1.2,0.9,0.8*2B

$GPGSV,3,1,10,02,12,293,14,03,21,147,29,06,23,248,28,07,70,279,28*7A

$GPGSV,3,2,10,09,61,022,24,16,17,043,22,23,42,071,24,28,02,189,24*7E

$GPGSV,3,3,10,30,42,243,34,05,,,*4A

$GLGSV,2,1,06,74,27,028,16,66,13,324,27,75,80,341,19,65,64,357,25*6A

$GLGSV,2,2,06,72,49,116,26,71,02,133,*6C

$GPGGA,075751.0,3205.972979,N,03512.308980,E,1,07,0.9,706.3,M,19.0,M,,*59

$GNGNS,075751.0,3205.972979,N,03512.308980,E,AA,12,0.9,706.3,19.0,,*69

$GPVTG,131.7,T,128.7,M,0.0,N,0.0,K,A*2B

$GPRMC,075751.0,A,3205.972979,N,03512.308980,E,0.0,131.7,310316,3.0,E,A*05

$GPGSA,A,2,03,06,07,09,16,23,30,,,,,,1.1,0.9,0.8*3C

$GNGSA,A,2,03,06,07,09,16,23,30,,,,,,1.1,0.9,0.8*22

$GNGSA,A,2,65,66,72,74,75,,,,,,,,1.1,0.9,0.8*2B

$GPGSV,3,1,10,02,12,293,14,03,21,147,32,06,23,248,27,07,70,279,24*73

$GPGSV,3,2,10,09,61,022,24,16,17,043,16,23,42,071,24,28,02,189,26*7B

$GPGSV,3,3,10,30,42,243,27,05,,,*48

$GLGSV,2,1,06,74,27,028,16,66,13,324,20,75,80,341,19,65,64,357,19*62

$GLGSV,2,2,06,72,49,116,31,71,02,133,*6A

$GPGGA,075752.0,3205.972917,N,03512.309160,E,1,07,0.9,706.3,M,19.0,M,,*55

$GNGNS,075752.0,3205.972917,N,03512.309160,E,AA,12,0.9,706.3,19.0,,*65

$GPVTG,131.7,T,128.7,M,1.0,N,1.9,K,A*22

$GPRMC,075752.0,A,3205.972917,N,03512.309160,E,1.0,131.7,310316,3.0,E,A*08

$GPGSA,A,2,03,06,07,09,16,23,30,,,,,,1.1,0.9,0.8*3C

$GNGSA,A,2,03,06,07,09,16,23,30,,,,,,1.1,0.9,0.8*22

$GNGSA,A,2,65,66,72,74,75,,,,,,,,1.1,0.9,0.8*2B

$GPGSV,3,1,10,02,12,293,14,03,21,147,29,06,23,248,28,07,70,279,20*72

$GPGSV,3,2,10,09,61,022,30,16,17,043,17,23,42,071,23,28,02,189,23*7D

$GPGSV,3,3,10,30,42,243,29,05,,,*46

$GLGSV,2,1,06,74,27,028,16,66,13,324,25,75,80,341,18,65,64,357,22*6E

$GLGSV,2,2,06,72,49,116,33,71,02,133,*68

$GPGGA,075753.0,3205.972836,N,03512.309910,E,1,07,0.9,707.2,M,19.0,M,,*59

$GNGNS,075753.0,3205.972836,N,03512.309910,E,AA,12,0.9,707.2,19.0,,*69

$GPVTG,131.7,T,128.7,M,0.0,N,0.0,K,A*2B

$GPRMC,075753.0,A,3205.972836,N,03512.309910,E,0.0,131.7,310316,3.0,E,A*05

$GPGSA,A,2,03,06,07,09,16,23,30,,,,,,1.1,0.9,0.8*3C

$GNGSA,A,2,03,06,07,09,16,23,30,,,,,,1.1,0.9,0.8*22

$GNGSA,A,2,65,66,72,74,75,,,,,,,,1.1,0.9,0.8*2B

$GPGSV,3,1,10,02,12,293,14,03,21,147,31,06,23,248,26,07,70,279,23*76

$GPGSV,3,2,10,09,61,022,23,16,17,043,22,23,42,071,21,28,02,189,30*79

$GPGSV,3,3,10,30,42,243,32,05,,,*4C

$GLGSV,2,1,06,74,27,028,15,66,13,324,28,75,80,341,18,65,64,357,22*60

$GLGSV,2,2,06,72,49,116,30,71,02,133,*6B

$GPGGA,075754.0,3205.972562,N,03512.310158,E,1,08,0.8,707.8,M,19.0,M,,*5A

$GNGNS,075754.0,3205.972562,N,03512.310158,E,AA,13,0.8,707.8,19.0,,*64

$GPVTG,131.7,T,128.7,M,0.0,N,0.0,K,A*2B

$GPRMC,075754.0,A,3205.972562,N,03512.310158,E,0.0,131.7,310316,3.0,E,A*02

$GPGSA,A,2,02,03,06,07,09,16,23,30,,,,,1.1,0.8,0.7*30

$GNGSA,A,2,02,03,06,07,09,16,23,30,,,,,1.1,0.8,0.7*2E

$GNGSA,A,2,65,66,72,74,75,,,,,,,,1.1,0.8,0.7*25

$GPGSV,3,1,10,02,12,293,14,03,21,147,29,06,23,248,29,07,70,279,24*77

$GPGSV,3,2,10,09,61,022,23,16,17,043,24,23,42,071,28,28,02,189,27*70

$GPGSV,3,3,10,30,42,243,36,05,,,*48

$GLGSV,2,1,06,74,27,028,15,66,13,324,33,75,80,341,22,65,64,357,22*63

$GLGSV,2,2,06,72,49,116,28,71,02,133,*62

$GPGGA,075755.0,3205.972068,N,03512.310102,E,1,08,0.8,708.5,M,19.0,M,,*59

$GNGNS,075755.0,3205.972068,N,03512.310102,E,AA,13,0.8,708.5,19.0,,*67

$GPVTG,131.7,T,128.7,M,0.0,N,0.0,K,A*2B

$GPRMC,075755.0,A,3205.972068,N,03512.310102,E,0.0,131.7,310316,3.0,E,A*03

$GPGSA,A,2,02,03,06,07,09,16,23,30,,,,,1.1,0.8,0.7*30

$GNGSA,A,2,02,03,06,07,09,16,23,30,,,,,1.1,0.8,0.7*2E

$GNGSA,A,2,65,66,72,74,75,,,,,,,,1.1,0.8,0.7*25

$GPGSV,3,1,10,02,12,293,14,03,21,147,20,06,23,248,24,07,70,279,26*71

$GPGSV,3,2,10,09,61,022,29,16,17,043,21,23,42,071,24,28,02,189,21*75

$GPGSV,3,3,10,30,42,243,30,05,,,*4E

$GLGSV,2,1,06,74,27,028,15,66,13,324,33,75,80,341,20,65,64,357,27*64

$GLGSV,2,2,06,72,49,116,27,71,02,133,*6D

$GPGGA,075756.0,3205.971614,N,03512.310132,E,1,08,0.8,710.4,M,19.0,M,,*5F

$GNGNS,075756.0,3205.971614,N,03512.310132,E,AA,13,0.8,710.4,19.0,,*61

$GPVTG,131.7,T,128.7,M,0.0,N,0.0,K,A*2B

$GPRMC,075756.0,A,3205.971614,N,03512.310132,E,0.0,131.7,310316,3.0,E,A*0D

$GPGSA,A,2,02,03,06,07,09,16,23,30,,,,,1.1,0.8,0.7*30

$GNGSA,A,2,02,03,06,07,09,16,23,30,,,,,1.1,0.8,0.7*2E

$GNGSA,A,2,65,66,72,74,75,,,,,,,,1.1,0.8,0.7*25

$GPGSV,3,1,10,02,12,293,14,03,21,147,23,06,23,248,25,07,70,279,28*7D

$GPGSV,3,2,10,09,61,022,26,16,17,043,21,23,42,071,23,28,02,189,21*7D

$GPGSV,3,3,10,30,42,243,26,05,,,*49

$GLGSV,2,1,06,74,27,028,15,66,13,324,24,75,80,341,20,65,64,357,24*61

$GLGSV,2,2,06,72,49,116,22,71,02,133,*68

$GPGGA,075757.0,3205.971701,N,03512.310205,E,1,08,0.8,710.8,M,19.0,M,,*50

$GNGNS,075757.0,3205.971701,N,03512.310205,E,AA,13,0.8,710.8,19.0,,*6E

$GPVTG,131.7,T,128.7,M,0.0,N,0.0,K,A*2B

$GPRMC,075757.0,A,3205.971701,N,03512.310205,E,0.0,131.7,310316,3.0,E,A*0E

$GPGSA,A,2,02,03,06,07,09,16,23,30,,,,,1.1,0.8,0.7*30

$GNGSA,A,2,02,03,06,07,09,16,23,30,,,,,1.1,0.8,0.7*2E

$GNGSA,A,2,65,66,72,74,75,,,,,,,,1.1,0.8,0.7*25

$GPGSV,3,1,10,02,12,293,15,03,21,147,24,06,23,248,29,07,70,279,27*78

$GPGSV,3,2,10,09,61,022,28,16,17,043,18,23,42,071,27,28,02,189,21*7D

$GPGSV,3,3,10,30,42,243,34,05,,,*4A

$GLGSV,2,1,06,74,27,028,14,66,13,324,23,75,80,341,21,65,64,357,29*6B

$GLGSV,2,2,06,72,49,116,23,71,02,133,*69

$GPGGA,075758.0,3205.971645,N,03512.310099,E,1,08,0.8,711.1,M,19.0,M,,*51

$GNGNS,075758.0,3205.971645,N,03512.310099,E,AA,13,0.8,711.1,19.0,,*6F

$GPVTG,131.7,T,128.7,M,0.0,N,0.0,K,A*2B

$GPRMC,075758.0,A,3205.971645,N,03512.310099,E,0.0,131.7,310316,3.0,E,A*07

$GPGSA,A,2,02,03,06,07,09,16,23,30,,,,,1.1,0.8,0.7*30

$GNGSA,A,2,02,03,06,07,09,16,23,30,,,,,1.1,0.8,0.7*2E

$GNGSA,A,2,65,66,72,74,75,,,,,,,,1.1,0.8,0.7*25

$GPGSV,3,1,10,02,12,293,15,03,21,147,25,06,23,248,27,07,70,279,29*79

$GPGSV,3,2,10,09,61,022,28,16,17,043,19,23,42,071,20,28,02,189,20*7A

$GPGSV,3,3,10,30,42,243,32,05,,,*4C

$GLGSV,2,1,06,74,27,028,14,66,13,324,19,75,80,341,25,65,64,357,30*6E

$GLGSV,2,2,06,72,49,116,19,71,02,133,*60

$GPGGA,075759.0,3205.971514,N,03512.309981,E,1,08,0.8,711.4,M,19.0,M,,*5A

$GNGNS,075759.0,3205.971514,N,03512.309981,E,AA,13,0.8,711.4,19.0,,*64

$GPVTG,131.7,T,128.7,M,0.0,N,0.0,K,A*2B

$GPRMC,075759.0,A,3205.971514,N,03512.309981,E,0.0,131.7,310316,3.0,E,A*09

$GPGSA,A,2,02,03,06,07,09,16,23,30,,,,,1.1,0.8,0.7*30

$GNGSA,A,2,02,03,06,07,09,16,23,30,,,,,1.1,0.8,0.7*2E

$GNGSA,A,2,65,66,72,74,75,,,,,,,,1.1,0.8,0.7*25

$GPGSV,3,1,10,02,12,293,15,03,21,147,24,06,23,248,21,07,70,279,24*73

$GPGSV,3,2,10,09,61,022,23,16,17,043,23,23,42,071,26,28,02,189,20*7E

$GPGSV,3,3,10,30,42,243,27,05,,,*48

$GLGSV,2,1,06,74,27,028,16,66,13,324,19,75,80,341,25,65,64,357,23*6E

$GLGSV,2,2,06,72,49,116,19,71,02,133,*60

$GPGGA,075800.0,3205.971384,N,03512.309931,E,1,08,0.8,711.7,M,19.0,M,,*5E

$GNGNS,075800.0,3205.971384,N,03512.309931,E,AA,13,0.8,711.7,19.0,,*60

$GPVTG,131.7,T,128.7,M,0.0,N,0.0,K,A*2B

$GPRMC,075800.0,A,3205.971384,N,03512.309931,E,0.0,131.7,310316,3.0,E,A*0E

$GPGSA,A,2,02,03,06,07,09,16,23,30,,,,,1.1,0.8,0.7*30

$GNGSA,A,2,02,03,06,07,09,16,23,30,,,,,1.1,0.8,0.7*2E

$GNGSA,A,2,65,66,72,74,75,,,,,,,,1.1,0.8,0.7*25

$GPGSV,3,1,10,02,12,293,15,03,21,147,22,06,23,248,20,07,70,279,24*74

$GPGSV,3,2,10,09,61,022,29,16,17,043,19,23,42,071,26,28,02,189,17*79

$GPGSV,3,3,10,30,42,243,24,05,,,*4B

$GLGSV,2,1,06,74,27,028,16,66,13,324,19,75,80,341,21,65,64,357,26*6F

$GLGSV,2,2,06,72,49,116,20,71,02,133,*6A

$GPGGA,075801.0,3205.971230,N,03512.309861,E,1,08,0.8,711.5,M,19.0,M,,*57

$GNGNS,075801.0,3205.971230,N,03512.309861,E,AA,13,0.8,711.5,19.0,,*69

$GPVTG,131.7,T,128.7,M,0.0,N,0.0,K,A*2B

$GPRMC,075801.0,A,3205.971230,N,03512.309861,E,0.0,131.7,310316,3.0,E,A*05

$GPGSA,A,2,02,03,06,07,09,16,23,30,,,,,1.1,0.8,0.7*30

$GNGSA,A,2,02,03,06,07,09,16,23,30,,,,,1.1,0.8,0.7*2E

$GNGSA,A,2,65,66,72,74,75,,,,,,,,1.1,0.8,0.7*25

$GPGSV,3,1,10,02,12,293,15,03,21,147,22,06,23,248,30,07,70,279,25*74

$GPGSV,3,2,10,09,61,022,28,16,17,043,17,23,42,071,25,28,02,189,24*75

$GPGSV,3,3,10,30,42,243,26,05,,,*49

$GLGSV,2,1,06,74,27,028,16,66,13,324,19,75,80,341,19,65,64,357,23*61

$GLGSV,2,2,06,72,49,116,22,71,02,133,*68

$GPGGA,075802.0,3205.971208,N,03512.309722,E,1,08,0.8,711.0,M,19.0,M,,*52

$GNGNS,075802.0,3205.971208,N,03512.309722,E,AA,13,0.8,711.0,19.0,,*6C

$GPVTG,131.7,T,128.7,M,0.0,N,0.0,K,A*2B

$GPRMC,075802.0,A,3205.971208,N,03512.309722,E,0.0,131.7,310316,3.0,E,A*05

$GPGSA,A,2,02,03,06,07,09,16,23,30,,,,,1.1,0.8,0.7*30

$GNGSA,A,2,02,03,06,07,09,16,23,30,,,,,1.1,0.8,0.7*2E

$GNGSA,A,2,65,66,72,74,75,,,,,,,,1.1,0.8,0.7*25

$GPGSV,3,1,10,02,12,293,15,03,21,147,18,06,23,248,19,07,70,279,26*75

$GPGSV,3,2,10,09,61,022,24,16,17,043,17,23,42,071,25,28,02,189,24*79

$GPGSV,3,3,10,30,42,243,26,05,,,*49

$GLGSV,2,1,06,74,27,028,16,66,13,324,17,75,80,341,20,65,64,357,20*66

$GLGSV,2,2,06,72,49,116,24,71,02,133,*6E

$GPGGA,075803.0,3205.971230,N,03512.309849,E,1,08,0.8,711.2,M,19.0,M,,*58

$GNGNS,075803.0,3205.971230,N,03512.309849,E,AA,13,0.8,711.2,19.0,,*66

$GPVTG,131.7,T,128.7,M,0.0,N,0.0,K,A*2B

$GPRMC,075803.0,A,3205.971230,N,03512.309849,E,0.0,131.7,310316,3.0,E,A*0D

$GPGSA,A,2,02,03,06,07,09,16,23,30,,,,,1.1,0.8,0.7*30

$GNGSA,A,2,02,03,06,07,09,16,23,30,,,,,1.1,0.8,0.7*2E

$GNGSA,A,2,65,66,72,74,75,,,,,,,,1.1,0.8,0.7*25

$GPGSV,3,1,10,02,12,293,15,03,21,147,19,06,23,248,21,07,70,279,16*7C

$GPGSV,3,2,10,09,61,022,21,16,17,043,17,23,42,071,21,28,02,189,16*79

$GPGSV,3,3,10,30,42,243,16,05,,,*4A

$GLGSV,2,1,06,74,27,028,16,66,13,324,17,75,80,341,16,65,64,357,17*67

$GLGSV,2,2,06,72,49,116,25,71,02,133,*6F

$GPGGA,075804.0,3205.971212,N,03512.309853,E,1,08,0.8,711.1,M,19.0,M,,*57

$GNGNS,075804.0,3205.971212,N,03512.309853,E,AA,13,0.8,711.1,19.0,,*69

$GPVTG,131.7,T,128.7,M,0.0,N,0.0,K,A*2B

$GPRMC,075804.0,A,3205.971212,N,03512.309853,E,0.0,131.7,310316,3.0,E,A*01

$GPGSA,A,2,02,03,06,07,09,16,23,30,,,,,1.1,0.8,0.7*30

$GNGSA,A,2,02,03,06,07,09,16,23,30,,,,,1.1,0.8,0.7*2E

$GNGSA,A,2,65,66,72,74,75,,,,,,,,1.1,0.8,0.7*25

$GPGSV,3,1,10,02,12,293,15,03,21,147,18,06,23,248,23,07,70,279,21*7B

$GPGSV,3,2,10,09,61,022,24,16,17,043,17,23,42,071,29,28,02,189,19*7B

$GPGSV,3,3,10,30,42,243,23,05,,,*4C

$GLGSV,2,1,06,74,27,028,16,66,13,324,18,75,80,341,21,65,64,357,17*6C

$GLGSV,2,2,06,72,49,116,29,71,02,133,*63

$GPGGA,075805.0,3205.971200,N,03512.309851,E,1,07,0.9,711.2,M,19.0,M,,*5A

$GNGNS,075805.0,3205.971200,N,03512.309851,E,AA,12,0.9,711.2,19.0,,*6A

$GPVTG,131.7,T,128.7,M,0.0,N,0.0,K,A*2B

$GPRMC,075805.0,A,3205.971200,N,03512.309851,E,0.0,131.7,310316,3.0,E,A*01

$GPGSA,A,2,03,06,07,09,16,23,30,,,,,,1.1,0.9,0.8*3C

$GNGSA,A,2,03,06,07,09,16,23,30,,,,,,1.1,0.9,0.8*22

$GNGSA,A,2,65,66,72,74,75,,,,,,,,1.1,0.9,0.8*2B

$GPGSV,3,1,10,02,12,293,15,03,21,147,17,06,23,248,24,07,70,279,18*79

$GPGSV,3,2,10,09,61,022,21,16,17,043,14,23,42,071,21,28,02,189,19*75

$GPGSV,3,3,10,30,42,243,21,05,,,*4E

$GLGSV,2,1,06,74,27,028,16,66,13,324,18,75,80,341,21,65,64,357,20*68

$GLGSV,2,2,06,72,49,116,20,71,02,133,*6A

$GPGGA,075806.0,3205.971192,N,03512.309844,E,1,07,0.9,711.2,M,19.0,M,,*55

$GNGNS,075806.0,3205.971192,N,03512.309844,E,AA,12,0.9,711.2,19.0,,*65

$GPVTG,131.7,T,128.7,M,0.0,N,0.0,K,A*2B

$GPRMC,075806.0,A,3205.971192,N,03512.309844,E,0.0,131.7,310316,3.0,E,A*0E

$GPGSA,A,2,03,06,07,09,16,23,30,,,,,,1.1,0.9,0.8*3C

$GNGSA,A,2,03,06,07,09,16,23,30,,,,,,1.1,0.9,0.8*22

$GNGSA,A,2,65,66,72,74,75,,,,,,,,1.1,0.9,0.8*2B

$GPGSV,3,1,10,02,12,293,15,03,21,147,18,06,23,248,24,07,70,279,18*76

$GPGSV,3,2,10,09,61,022,21,16,17,043,14,23,42,071,17,28,02,189,18*71

$GPGSV,3,3,10,30,42,243,21,05,,,*4E

$GLGSV,2,1,06,74,27,028,16,66,13,324,15,75,80,341,21,65,64,357,20*65

$GLGSV,2,2,06,72,49,116,18,71,02,133,*61

$GPGGA,075807.0,3205.971191,N,03512.309844,E,1,07,0.9,711.2,M,19.0,M,,*57

$GNGNS,075807.0,3205.971191,N,03512.309844,E,AA,11,0.9,711.2,19.0,,*64

$GPVTG,131.7,T,128.7,M,0.0,N,0.0,K,A*2B

$GPRMC,075807.0,A,3205.971191,N,03512.309844,E,0.0,131.7,310316,3.0,E,A*0C

$GPGSA,A,2,03,06,07,09,16,23,30,,,,,,1.2,0.9,0.8*3F

$GNGSA,A,2,03,06,07,09,16,23,30,,,,,,1.2,0.9,0.8*21

$GNGSA,A,2,65,66,72,75,,,,,,,,,1.2,0.9,0.8*2B

$GPGSV,3,1,10,02,12,293,15,03,21,147,20,06,23,248,20,07,70,279,21*73

$GPGSV,3,2,10,09,61,022,25,16,17,043,14,23,42,071,30,28,02,189,20*7B

$GPGSV,3,3,10,30,42,243,16,05,,,*4A

$GLGSV,2,1,06,74,27,028,16,66,13,324,18,75,80,341,19,65,64,357,22*61

$GLGSV,2,2,06,72,49,116,25,71,02,133,*6F

$GPGGA,075808.0,3205.971194,N,03512.309841,E,1,07,0.9,711.2,M,19.0,M,,*58

$GNGNS,075808.0,3205.971194,N,03512.309841,E,AA,11,0.9,711.2,19.0,,*6B

$GPVTG,131.7,T,128.7,M,0.0,N,0.0,K,A*2B

$GPRMC,075808.0,A,3205.971194,N,03512.309841,E,0.0,131.7,310316,3.0,E,A*03

$GPGSA,A,2,03,06,07,09,16,23,30,,,,,,1.2,0.9,0.8*3F

$GNGSA,A,2,03,06,07,09,16,23,30,,,,,,1.2,0.9,0.8*21

$GNGSA,A,2,65,66,72,75,,,,,,,,,1.2,0.9,0.8*2B

$GPGSV,3,1,10,02,12,293,15,03,21,147,24,06,23,248,27,07,70,279,25*74

$GPGSV,3,2,10,09,61,022,26,16,17,043,15,23,42,071,25,28,02,189,22*7F

$GPGSV,3,3,10,30,42,243,24,05,,,*4B

$GLGSV,2,1,06,74,27,028,16,66,13,324,22,75,80,341,23,65,64,357,24*67

$GLGSV,2,2,06,72,49,116,27,71,02,133,*6D

$GPGGA,075809.0,3205.971187,N,03512.309836,E,1,07,0.9,711.2,M,19.0,M,,*5B

$GNGNS,075809.0,3205.971187,N,03512.309836,E,AA,11,0.9,711.2,19.0,,*68

$GPVTG,131.7,T,128.7,M,0.0,N,0.0,K,A*2B

$GPRMC,075809.0,A,3205.971187,N,03512.309836,E,0.0,131.7,310316,3.0,E,A*00

$GPGSA,A,2,03,06,07,09,16,23,30,,,,,,1.2,0.9,0.8*3F

$GNGSA,A,2,03,06,07,09,16,23,30,,,,,,1.2,0.9,0.8*21

$GNGSA,A,2,65,66,72,75,,,,,,,,,1.2,0.9,0.8*2B

$GPGSV,3,1,10,02,12,293,15,03,21,147,25,06,23,248,23,07,70,279,25*71

$GPGSV,3,2,10,09,61,022,26,16,17,043,17,23,42,071,26,28,02,189,24*78

$GPGSV,3,3,10,30,42,243,20,05,,,*4F

$GLGSV,2,1,06,74,27,028,16,66,13,324,24,75,80,341,24,65,64,357,24*66

$GLGSV,2,2,06,72,49,116,18,71,02,133,*61

$GPGGA,075810.0,3205.971189,N,03512.309838,E,1,07,0.9,711.2,M,19.0,M,,*53

$GNGNS,075810.0,3205.971189,N,03512.309838,E,AA,11,0.9,711.2,19.0,,*60

$GPVTG,131.7,T,128.7,M,0.0,N,0.0,K,A*2B

$GPRMC,075810.0,A,3205.971189,N,03512.309838,E,0.0,131.7,310316,3.0,E,A*08

$GPGSA,A,2,03,06,07,09,16,23,30,,,,,,1.2,0.9,0.8*3F

$GNGSA,A,2,03,06,07,09,16,23,30,,,,,,1.2,0.9,0.8*21

$GNGSA,A,2,65,66,72,75,,,,,,,,,1.2,0.9,0.8*2B

$GPGSV,3,1,10,02,12,293,15,03,21,147,27,06,23,248,21,07,70,279,25*71

$GPGSV,3,2,10,09,61,022,25,16,17,043,17,23,42,071,27,28,02,189,26*78

$GPGSV,3,3,10,30,42,243,23,05,,,*4C

$GLGSV,2,1,06,74,27,028,16,66,13,324,20,75,80,341,25,65,64,357,24*63

$GLGSV,2,2,06,72,49,116,17,71,02,133,*6E

$GPGGA,075811.0,3205.971186,N,03512.309837,E,1,07,0.9,711.2,M,19.0,M,,*52

$GNGNS,075811.0,3205.971186,N,03512.309837,E,AA,11,0.9,711.2,19.0,,*61

$GPVTG,131.7,T,128.7,M,0.0,N,0.0,K,A*2B

$GPRMC,075811.0,A,3205.971186,N,03512.309837,E,0.0,131.7,310316,3.0,E,A*09

$GPGSA,A,2,03,06,07,09,16,23,30,,,,,,1.2,0.9,0.8*3F

$GNGSA,A,2,03,06,07,09,16,23,30,,,,,,1.2,0.9,0.8*21

$GNGSA,A,2,65,66,72,75,,,,,,,,,1.2,0.9,0.8*2B

$GPGSV,3,1,10,02,12,293,15,03,21,147,28,06,23,248,23,07,70,279,25*7C

$GPGSV,3,2,10,09,61,022,28,16,17,043,15,23,42,071,28,28,02,189,28*76

$GPGSV,3,3,10,30,42,243,25,05,,,*4A

$GLGSV,2,1,06,74,27,028,11,66,13,324,23,75,80,341,26,65,64,357,23*63

$GLGSV,2,2,06,72,49,116,18,71,02,133,*61

$GPGGA,075812.0,3205.971180,N,03512.309836,E,1,07,0.9,711.2,M,19.0,M,,*56

$GNGNS,075812.0,3205.971180,N,03512.309836,E,AA,12,0.9,711.2,19.0,,*66

$GPVTG,131.7,T,128.7,M,0.0,N,0.0,K,A*2B

$GPRMC,075812.0,A,3205.971180,N,03512.309836,E,0.0,131.7,310316,3.0,E,A*0D

$GPGSA,A,2,03,06,07,09,16,23,30,,,,,,1.1,0.9,0.8*3C

$GNGSA,A,2,03,06,07,09,16,23,30,,,,,,1.1,0.9,0.8*22

$GNGSA,A,2,65,66,72,74,75,,,,,,,,1.1,0.9,0.8*2B

$GPGSV,3,1,10,02,12,293,15,03,21,147,27,06,23,248,21,07,70,279,13*74

$GPGSV,3,2,10,09,61,022,28,16,17,043,15,23,42,071,25,28,02,189,27*74

$GPGSV,3,3,10,30,42,243,26,05,,,*49

$GLGSV,2,1,06,74,27,028,11,66,13,324,22,75,80,341,25,65,64,357,23*61

$GLGSV,2,2,06,72,49,116,18,71,02,133,*61

$GPGGA,075813.0,3205.971180,N,03512.309834,E,1,07,0.9,711.2,M,19.0,M,,*55

$GNGNS,075813.0,3205.971180,N,03512.309834,E,AA,12,0.9,711.2,19.0,,*65

$GPVTG,131.7,T,128.7,M,0.0,N,0.0,K,A*2B

$GPRMC,075813.0,A,3205.971180,N,03512.309834,E,0.0,131.7,310316,3.0,E,A*0E

$GPGSA,A,2,03,06,07,09,16,23,30,,,,,,1.1,0.9,0.8*3C

$GNGSA,A,2,03,06,07,09,16,23,30,,,,,,1.1,0.9,0.8*22

$GNGSA,A,2,65,66,72,74,75,,,,,,,,1.1,0.9,0.8*2B

$GPGSV,3,1,10,02,12,293,15,03,21,147,26,06,23,248,23,07,70,279,13*77

$GPGSV,3,2,10,09,61,022,26,16,17,043,15,23,42,071,24,28,02,189,26*7A

$GPGSV,3,3,10,30,42,243,24,05,,,*4B

$GLGSV,2,1,06,74,27,028,11,66,13,324,22,75,80,341,25,65,64,357,23*61

$GLGSV,2,2,06,72,49,116,18,71,02,133,*61

$GPGGA,075814.0,3205.971179,N,03512.309832,E,1,07,0.9,711.2,M,19.0,M,,*52

$GNGNS,075814.0,3205.971179,N,03512.309832,E,AA,12,0.9,711.2,19.0,,*62

$GPVTG,131.7,T,128.7,M,0.0,N,0.0,K,A*2B

$GPRMC,075814.0,A,3205.971179,N,03512.309832,E,0.0,131.7,310316,3.0,E,A*09

$GPGSA,A,2,03,06,07,09,16,23,30,,,,,,1.1,0.9,0.8*3C

$GNGSA,A,2,03,06,07,09,16,23,30,,,,,,1.1,0.9,0.8*22

$GNGSA,A,2,65,66,72,74,75,,,,,,,,1.1,0.9,0.8*2B

$GPGSV,3,1,10,02,12,293,15,03,21,147,28,06,23,248,23,07,70,279,13*79

$GPGSV,3,2,10,09,61,022,27,16,17,043,15,23,42,071,27,28,02,189,27*79

$GPGSV,3,3,10,30,42,243,25,05,,,*4A

$GLGSV,2,1,06,74,27,028,11,66,13,324,23,75,80,341,27,65,64,357,26*67

$GLGSV,2,2,06,72,49,116,15,71,02,133,*6C

$GPGGA,075815.0,3205.971179,N,03512.309830,E,1,07,0.9,711.2,M,19.0,M,,*51

$GNGNS,075815.0,3205.971179,N,03512.309830,E,AA,12,0.9,711.2,19.0,,*61

$GPVTG,131.7,T,128.7,M,0.0,N,0.0,K,A*2B

$GPRMC,075815.0,A,3205.971179,N,03512.309830,E,0.0,131.7,310316,3.0,E,A*0A

$GPGSA,A,2,03,06,07,09,16,23,30,,,,,,1.1,0.9,0.8*3C

$GNGSA,A,2,03,06,07,09,16,23,30,,,,,,1.1,0.9,0.8*22

$GNGSA,A,2,65,66,72,74,75,,,,,,,,1.1,0.9,0.8*2B

$GPGSV,3,1,10,02,12,293,15,03,21,147,26,06,23,248,21,07,70,279,13*75

$GPGSV,3,2,10,09,61,022,26,16,17,043,15,23,42,071,27,28,02,189,26*79

$GPGSV,3,3,10,30,42,243,25,05,,,*4A

$GLGSV,2,1,06,74,27,028,14,66,13,324,22,75,80,341,25,65,64,357,26*61

$GLGSV,2,2,06,72,49,116,15,71,02,133,*6C

$GPGGA,075816.0,3205.971166,N,03512.309821,E,1,07,0.9,711.3,M,19.0,M,,*5D

$GNGNS,075816.0,3205.971166,N,03512.309821,E,AA,12,0.9,711.3,19.0,,*6D

$GPVTG,131.7,T,128.7,M,0.0,N,0.0,K,A*2B

$GPRMC,075816.0,A,3205.971166,N,03512.309821,E,0.0,131.7,310316,3.0,E,A*07

$GPGSA,A,2,03,06,07,09,16,23,30,,,,,,1.1,0.9,0.8*3C

$GNGSA,A,2,03,06,07,09,16,23,30,,,,,,1.1,0.9,0.8*22

$GNGSA,A,2,65,66,72,74,75,,,,,,,,1.1,0.9,0.8*2B

$GPGSV,3,1,10,02,12,293,15,03,21,147,25,06,23,248,19,07,70,279,13*7D

$GPGSV,3,2,10,09,61,022,27,16,17,043,13,23,42,071,27,28,02,189,26*7E

$GPGSV,3,3,10,30,42,243,25,05,,,*4A

$GLGSV,2,1,06,74,27,028,18,66,13,324,21,75,80,341,25,65,64,357,24*6C

$GLGSV,2,2,06,72,49,116,15,71,02,133,*6C

$GPGGA,075817.0,3205.971145,N,03512.309813,E,1,07,0.9,711.3,M,19.0,M,,*5C

$GNGNS,075817.0,3205.971145,N,03512.309813,E,AA,12,0.9,711.3,19.0,,*6C

$GPVTG,131.7,T,128.7,M,0.0,N,0.0,K,A*2B

$GPRMC,075817.0,A,3205.971145,N,03512.309813,E,0.0,131.7,310316,3.0,E,A*06

$GPGSA,A,2,03,06,07,09,16,23,30,,,,,,1.1,0.9,0.8*3C

$GNGSA,A,2,03,06,07,09,16,23,30,,,,,,1.1,0.9,0.8*22

$GNGSA,A,2,65,66,72,74,75,,,,,,,,1.1,0.9,0.8*2B

$GPGSV,3,1,10,02,12,293,15,03,21,147,23,06,23,248,23,07,70,279,13*72

$GPGSV,3,2,10,09,61,022,26,16,17,043,13,23,42,071,26,28,02,189,24*7C

$GPGSV,3,3,10,30,42,243,21,05,,,*4E

$GLGSV,2,1,06,74,27,028,18,66,13,324,20,75,80,341,24,65,64,357,23*6B

$GLGSV,2,2,06,72,49,116,13,71,02,133,*6A

$GPGGA,075818.0,3205.971139,N,03512.309809,E,1,07,0.9,711.3,M,19.0,M,,*53

$GNGNS,075818.0,3205.971139,N,03512.309809,E,AA,12,0.9,711.3,19.0,,*63

$GPVTG,131.7,T,128.7,M,0.0,N,0.0,K,A*2B

$GPRMC,075818.0,A,3205.971139,N,03512.309809,E,0.0,131.7,310316,3.0,E,A*09

$GPGSA,A,2,03,06,07,09,16,23,30,,,,,,1.1,0.9,0.7*33

$GNGSA,A,2,03,06,07,09,16,23,30,,,,,,1.1,0.9,0.7*2D

$GNGSA,A,2,65,66,72,74,75,,,,,,,,1.1,0.9,0.7*24

$GPGSV,3,1,10,02,12,293,15,03,21,147,24,06,23,248,23,07,70,279,13*75

$GPGSV,3,2,10,09,61,022,25,16,17,043,13,23,42,071,25,28,02,189,24*7C

$GPGSV,3,3,10,30,42,243,21,05,,,*4E

$GLGSV,2,1,06,74,27,028,18,66,13,324,20,75,80,341,25,65,64,357,24*6D

$GLGSV,2,2,06,72,49,116,13,71,02,133,*6A

$GPGGA,075819.0,3205.971134,N,03512.309807,E,1,07,0.9,711.3,M,19.0,M,,*51

$GNGNS,075819.0,3205.971134,N,03512.309807,E,AA,12,0.9,711.3,19.0,,*61

$GPVTG,131.7,T,128.7,M,0.0,N,0.0,K,A*2B

$GPRMC,075819.0,A,3205.971134,N,03512.309807,E,0.0,131.7,310316,3.0,E,A*0B

$GPGSA,A,2,03,06,07,09,16,23,30,,,,,,1.1,0.9,0.7*33

$GNGSA,A,2,03,06,07,09,16,23,30,,,,,,1.1,0.9,0.7*2D

$GNGSA,A,2,65,66,72,74,75,,,,,,,,1.1,0.9,0.7*24

$GPGSV,3,1,10,02,12,293,15,03,21,147,24,06,23,248,19,07,70,279,13*7C

$GPGSV,3,2,10,09,61,022,24,16,17,043,13,23,42,071,25,28,02,189,23*7A

$GPGSV,3,3,10,30,42,243,20,05,,,*4F

$GLGSV,2,1,06,74,27,028,16,66,13,324,18,75,80,341,26,65,64,357,24*6B

$GLGSV,2,2,06,72,49,116,16,71,02,133,*6F

$GPGGA,075820.0,3205.971134,N,03512.309807,E,1,07,0.9,711.3,M,19.0,M,,*5B

$GNGNS,075820.0,3205.971134,N,03512.309807,E,AA,12,0.9,711.3,19.0,,*6B

$GPVTG,131.7,T,128.7,M,0.0,N,0.0,K,A*2B

$GPRMC,075820.0,A,3205.971134,N,03512.309807,E,0.0,131.7,310316,3.0,E,A*01

$GPGSA,A,2,03,06,07,09,16,23,30,,,,,,1.1,0.9,0.7*33

$GNGSA,A,2,03,06,07,09,16,23,30,,,,,,1.1,0.9,0.7*2D

$GNGSA,A,2,65,66,72,74,75,,,,,,,,1.1,0.9,0.7*24

$GPGSV,3,1,10,03,21,147,24,06,23,248,23,07,70,279,20,09,61,022,26*72

$GPGSV,3,2,10,16,17,043,13,23,42,071,22,28,02,189,20,30,42,243,19*7E

$GPGSV,3,3,10,02,12,293,,05,,,*44

$GLGSV,2,1,06,74,27,028,16,66,13,324,21,75,80,341,25,65,64,357,20*66

$GLGSV,2,2,06,72,49,116,16,71,02,133,*6F

$GPGGA,075821.0,3205.971130,N,03512.309805,E,1,07,0.9,711.3,M,19.0,M,,*5C

$GNGNS,075821.0,3205.971130,N,03512.309805,E,AA,12,0.9,711.3,19.0,,*6C

$GPVTG,131.7,T,128.7,M,0.0,N,0.0,K,A*2B

$GPRMC,075821.0,A,3205.971130,N,03512.309805,E,0.0,131.7,310316,3.0,E,A*06

$GPGSA,A,2,03,06,07,09,16,23,30,,,,,,1.1,0.9,0.7*33

$GNGSA,A,2,03,06,07,09,16,23,30,,,,,,1.1,0.9,0.7*2D

$GNGSA,A,2,65,66,72,74,75,,,,,,,,1.1,0.9,0.7*24

$GPGSV,3,1,10,03,21,147,24,06,23,248,23,07,70,279,26,09,61,022,27*75

$GPGSV,3,2,10,16,17,043,13,23,42,071,20,28,02,189,21,30,42,243,16*72

$GPGSV,3,3,10,02,12,293,,05,,,*44

$GLGSV,2,1,06,74,27,028,16,66,13,324,20,75,80,341,22,65,64,357,22*62

$GLGSV,2,2,06,72,49,116,16,71,02,133,*6F

$GPGGA,075822.0,3205.971145,N,03512.309813,E,1,07,0.9,711.3,M,19.0,M,,*5A

$GNGNS,075822.0,3205.971145,N,03512.309813,E,AA,12,0.9,711.3,19.0,,*6A

$GPVTG,131.7,T,128.7,M,0.0,N,0.0,K,A*2B

$GPRMC,075822.0,A,3205.971145,N,03512.309813,E,0.0,131.7,310316,3.0,E,A*00

$GPGSA,A,2,03,06,07,09,16,23,30,,,,,,1.1,0.9,0.7*33

$GNGSA,A,2,03,06,07,09,16,23,30,,,,,,1.1,0.9,0.7*2D

$GNGSA,A,2,65,66,72,74,75,,,,,,,,1.1,0.9,0.7*24

$GPGSV,3,1,10,03,21,147,25,06,23,248,23,07,70,279,25,09,61,022,28*78

$GPGSV,3,2,10,16,17,043,13,23,42,071,20,28,02,189,22,30,42,243,19*7E

$GPGSV,3,3,10,02,12,293,,05,,,*44

$GLGSV,2,1,06,74,27,028,20,66,13,324,20,75,80,341,21,65,64,357,23*65

$GLGSV,2,2,06,72,49,116,16,71,02,133,*6F

$GPGGA,075823.0,3205.971134,N,03512.309805,E,1,07,0.9,711.3,M,19.0,M,,*5A

$GNGNS,075823.0,3205.971134,N,03512.309805,E,AA,12,0.9,711.3,19.0,,*6A

$GPVTG,131.7,T,128.7,M,0.0,N,0.0,K,A*2B

$GPRMC,075823.0,A,3205.971134,N,03512.309805,E,0.0,131.7,310316,3.0,E,A*00

$GPGSA,A,2,03,06,07,09,16,23,30,,,,,,1.1,0.9,0.7*33

$GNGSA,A,2,03,06,07,09,16,23,30,,,,,,1.1,0.9,0.7*2D

$GNGSA,A,2,65,66,72,74,75,,,,,,,,1.1,0.9,0.7*24

$GPGSV,3,1,10,03,21,147,26,06,23,248,25,07,70,279,27,09,61,022,27*70

$GPGSV,3,2,10,16,17,043,13,23,42,071,21,28,02,189,24,30,42,243,17*77

$GPGSV,3,3,10,02,12,293,,05,,,*44

$GLGSV,2,1,06,74,27,028,18,66,13,324,22,75,80,341,21,65,64,357,23*6C

$GLGSV,2,2,06,72,49,116,23,71,02,133,*69

$GPGGA,075824.0,3205.971161,N,03512.309819,E,1,06,0.9,711.3,M,19.0,M,,*51

$GNGNS,075824.0,3205.971161,N,03512.309819,E,AA,11,0.9,711.3,19.0,,*63

$GPVTG,131.7,T,128.7,M,0.0,N,0.0,K,A*2B

$GPRMC,075824.0,A,3205.971161,N,03512.309819,E,0.0,131.7,310316,3.0,E,A*0A

$GPGSA,A,2,03,06,07,09,23,30,,,,,,,1.2,0.9,0.8*38

$GNGSA,A,2,03,06,07,09,23,30,,,,,,,1.2,0.9,0.8*26

$GNGSA,A,2,65,66,72,74,75,,,,,,,,1.2,0.9,0.8*28

$GPGSV,3,1,10,03,21,147,23,06,23,248,26,07,70,279,27,09,61,022,27*76

$GPGSV,3,2,10,16,17,043,13,23,42,071,21,28,02,189,24,30,42,243,17*77

$GPGSV,3,3,10,02,12,293,,05,,,*44

$GLGSV,2,1,06,74,27,028,18,66,13,324,23,75,80,341,23,65,64,357,21*6D

$GLGSV,2,2,06,72,49,116,21,71,02,133,*6B

$GPGGA,075825.0,3205.971172,N,03512.309825,E,1,06,0.9,711.2,M,19.0,M,,*5C

$GNGNS,075825.0,3205.971172,N,03512.309825,E,AA,11,0.9,711.2,19.0,,*6E

$GPVTG,131.7,T,128.7,M,0.0,N,0.0,K,A*2B

$GPRMC,075825.0,A,3205.971172,N,03512.309825,E,0.0,131.7,310316,3.0,E,A*06

$GPGSA,A,2,03,06,07,09,23,30,,,,,,,1.2,0.9,0.8*38

$GNGSA,A,2,03,06,07,09,23,30,,,,,,,1.2,0.9,0.8*26

$GNGSA,A,2,65,66,72,74,75,,,,,,,,1.2,0.9,0.8*28

$GPGSV,3,1,10,03,21,147,24,06,23,248,23,07,70,279,25,09,61,022,28*79

$GPGSV,3,2,10,16,17,043,13,23,42,071,21,28,02,189,25,30,42,243,15*74

$GPGSV,3,3,10,02,12,293,,05,,,*44

$GLGSV,2,1,06,74,27,028,18,66,13,324,19,75,80,341,23,65,64,357,20*65

$GLGSV,2,2,06,72,49,116,25,71,02,133,*6F

$GPGGA,075826.0,3205.971180,N,03512.309825,E,1,06,0.9,711.2,M,19.0,M,,*52

$GNGNS,075826.0,3205.971180,N,03512.309825,E,AA,11,0.9,711.2,19.0,,*60

$GPVTG,131.7,T,128.7,M,0.0,N,0.0,K,A*2B

$GPRMC,075826.0,A,3205.971180,N,03512.309825,E,0.0,131.7,310316,3.0,E,A*08

$GPGSA,A,2,03,06,07,09,23,30,,,,,,,1.2,0.9,0.8*38

$GNGSA,A,2,03,06,07,09,23,30,,,,,,,1.2,0.9,0.8*26

$GNGSA,A,2,65,66,72,74,75,,,,,,,,1.2,0.9,0.8*28

$GPGSV,3,1,10,03,21,147,25,06,23,248,23,07,70,279,24,09,61,022,28*79

$GPGSV,3,2,10,16,17,043,11,23,42,071,19,28,02,189,26,30,42,243,15*7E

$GPGSV,3,3,10,02,12,293,,05,,,*44

$GLGSV,2,1,06,74,27,028,18,66,13,324,20,75,80,341,23,65,64,357,22*6D

$GLGSV,2,2,06,72,49,116,22,71,02,133,*68

$GPGGA,075827.0,3205.971189,N,03512.309828,E,1,07,0.9,711.2,M,19.0,M,,*56

$GNGNS,075827.0,3205.971189,N,03512.309828,E,AA,12,0.9,711.2,19.0,,*66

$GPVTG,131.7,T,128.7,M,0.0,N,0.0,K,A*2B

$GPRMC,075827.0,A,3205.971189,N,03512.309828,E,0.0,131.7,310316,3.0,E,A*0D

$GPGSA,A,2,03,06,07,09,16,23,30,,,,,,1.1,0.9,0.7*33

$GNGSA,A,2,03,06,07,09,16,23,30,,,,,,1.1,0.9,0.7*2D

$GNGSA,A,2,65,66,72,74,75,,,,,,,,1.1,0.9,0.7*24

$GPGSV,3,1,10,03,21,147,22,06,23,248,21,07,70,279,26,09,61,022,27*71

$GPGSV,3,2,10,16,17,043,11,23,42,071,17,28,02,189,25,30,42,243,17*71

$GPGSV,3,3,10,02,12,293,,05,,,*44

$GLGSV,2,1,06,74,27,028,17,66,13,324,20,75,80,341,25,65,64,357,25*63

$GLGSV,2,2,06,72,49,116,23,71,02,133,*69

$GPGGA,075828.0,3205.971189,N,03512.309828,E,1,07,0.9,711.2,M,19.0,M,,*59

$GNGNS,075828.0,3205.971189,N,03512.309828,E,AA,12,0.9,711.2,19.0,,*69

$GPVTG,131.7,T,128.7,M,0.0,N,0.0,K,A*2B

$GPRMC,075828.0,A,3205.971189,N,03512.309828,E,0.0,131.7,310316,3.0,E,A*02

$GPGSA,A,2,03,06,07,09,16,23,30,,,,,,1.1,0.9,0.7*33

$GNGSA,A,2,03,06,07,09,16,23,30,,,,,,1.1,0.9,0.7*2D

$GNGSA,A,2,65,66,72,74,75,,,,,,,,1.1,0.9,0.7*24

$GPGSV,3,1,10,03,21,147,24,06,23,248,24,07,70,279,25,09,61,022,27*71

$GPGSV,3,2,10,16,17,043,11,23,42,071,27,28,02,189,24,30,42,243,22*75

$GPGSV,3,3,10,02,12,293,,05,,,*44

$GLGSV,2,1,06,74,27,028,18,66,13,324,21,75,80,341,24,65,64,357,25*6C

$GLGSV,2,2,06,72,49,116,27,71,02,133,*6D

$GPGGA,075829.0,3205.971195,N,03512.309831,E,1,07,0.9,711.1,M,19.0,M,,*5E

$GNGNS,075829.0,3205.971195,N,03512.309831,E,AA,12,0.9,711.1,19.0,,*6E

$GPVTG,131.7,T,128.7,M,0.0,N,0.0,K,A*2B

$GPRMC,075829.0,A,3205.971195,N,03512.309831,E,0.0,131.7,310316,3.0,E,A*06

$GPGSA,A,2,03,06,07,09,16,23,30,,,,,,1.1,0.9,0.7*33

$GNGSA,A,2,03,06,07,09,16,23,30,,,,,,1.1,0.9,0.7*2D

$GNGSA,A,2,65,66,72,74,75,,,,,,,,1.1,0.9,0.7*24

$GPGSV,3,1,10,03,21,147,25,06,23,248,19,07,70,279,25,09,61,022,31*79

$GPGSV,3,2,10,16,17,043,15,23,42,071,30,28,02,189,24,30,42,243,24*71

$GPGSV,3,3,10,02,12,293,,05,,,*44

$GLGSV,2,1,06,74,27,028,19,66,13,324,23,75,80,341,20,65,64,357,27*69

$GLGSV,2,2,06,72,49,116,30,71,02,133,*6B

$GPGGA,075830.0,3205.971192,N,03512.309829,E,1,07,0.9,711.2,M,19.0,M,,*5B

$GNGNS,075830.0,3205.971192,N,03512.309829,E,AA,12,0.9,711.2,19.0,,*6B

$GPVTG,131.7,T,128.7,M,0.0,N,0.0,K,A*2B

$GPRMC,075830.0,A,3205.971192,N,03512.309829,E,0.0,131.7,310316,3.0,E,A*00

$GPGSA,A,2,03,06,07,09,16,23,30,,,,,,1.1,0.9,0.7*33

$GNGSA,A,2,03,06,07,09,16,23,30,,,,,,1.1,0.9,0.7*2D

$GNGSA,A,2,65,66,72,74,75,,,,,,,,1.1,0.9,0.7*24

$GPGSV,3,1,10,03,21,147,24,06,23,248,19,07,70,279,25,09,61,022,30*79

$GPGSV,3,2,10,16,17,043,15,23,42,071,26,28,02,189,23,30,42,243,28*7D

$GPGSV,3,3,10,02,12,293,,05,,,*44

$GLGSV,2,1,06,74,27,028,19,66,13,324,20,75,80,341,20,65,64,357,25*68

$GLGSV,2,2,06,72,49,116,28,71,02,133,*62

$GPGGA,075831.0,3205.971194,N,03512.309831,E,1,07,0.9,711.2,M,19.0,M,,*55

$GNGNS,075831.0,3205.971194,N,03512.309831,E,AA,12,0.9,711.2,19.0,,*65

$GPVTG,131.7,T,128.7,M,0.0,N,0.0,K,A*2B

$GPRMC,075831.0,A,3205.971194,N,03512.309831,E,0.0,131.7,310316,3.0,E,A*0E

$GPGSA,A,2,03,06,07,09,16,23,30,,,,,,1.1,0.9,0.7*33

$GNGSA,A,2,03,06,07,09,16,23,30,,,,,,1.1,0.9,0.7*2D

$GNGSA,A,2,65,66,72,74,75,,,,,,,,1.1,0.9,0.7*24

$GPGSV,3,1,10,02,12,293,12,03,21,147,21,06,23,248,25,07,70,279,23*72

$GPGSV,3,2,10,09,61,022,33,16,17,043,17,23,42,071,24,28,02,189,22*78

$GPGSV,3,3,10,30,42,243,27,05,,,*48

$GLGSV,2,1,06,74,27,028,19,66,13,324,19,75,80,341,23,65,64,357,30*65

$GLGSV,2,2,06,72,49,116,27,71,02,133,*6D

$GPGGA,075832.0,3205.971192,N,03512.309832,E,1,08,0.8,711.2,M,19.0,M,,*5D

$GNGNS,075832.0,3205.971192,N,03512.309832,E,AA,13,0.8,711.2,19.0,,*63

$GPVTG,131.7,T,128.7,M,0.0,N,0.0,K,A*2B

$GPRMC,075832.0,A,3205.971192,N,03512.309832,E,0.0,131.7,310316,3.0,E,A*08

$GPGSA,A,2,02,03,06,07,09,16,23,30,,,,,1.1,0.8,0.7*30

$GNGSA,A,2,02,03,06,07,09,16,23,30,,,,,1.1,0.8,0.7*2E

$GNGSA,A,2,65,66,72,74,75,,,,,,,,1.1,0.8,0.7*25

$GPGSV,3,1,10,02,12,293,13,03,21,147,24,06,23,248,26,07,70,279,25*73

$GPGSV,3,2,10,09,61,022,28,16,17,043,17,23,42,071,28,28,02,189,19*76

$GPGSV,3,3,10,30,42,243,23,05,,,*4C

$GLGSV,2,1,06,74,27,028,19,66,13,324,19,75,80,341,24,65,64,357,33*61

$GLGSV,2,2,06,72,49,116,29,71,02,133,*63

$GPGGA,075833.0,3205.971193,N,03512.309832,E,1,08,0.8,711.2,M,19.0,M,,*5D

$GNGNS,075833.0,3205.971193,N,03512.309832,E,AA,13,0.8,711.2,19.0,,*63

$GPVTG,131.7,T,128.7,M,0.0,N,0.0,K,A*2B

$GPRMC,075833.0,A,3205.971193,N,03512.309832,E,0.0,131.7,310316,3.0,E,A*08

$GPGSA,A,2,02,03,06,07,09,16,23,30,,,,,1.1,0.8,0.7*30

$GNGSA,A,2,02,03,06,07,09,16,23,30,,,,,1.1,0.8,0.7*2E

$GNGSA,A,2,65,66,72,74,75,,,,,,,,1.1,0.8,0.7*25

$GPGSV,3,1,10,02,12,293,13,03,21,147,17,06,23,248,23,07,70,279,22*71

$GPGSV,3,2,10,09,61,022,28,16,17,043,17,23,42,071,28,28,02,189,21*7D

$GPGSV,3,3,10,30,42,243,21,05,,,*4E

$GLGSV,2,1,06,74,27,028,19,66,13,324,17,75,80,341,25,65,64,357,29*65

$GLGSV,2,2,06,72,49,116,31,71,02,133,*6A

$GPGGA,075834.0,3205.971193,N,03512.309833,E,1,08,0.8,711.2,M,19.0,M,,*5B

$GNGNS,075834.0,3205.971193,N,03512.309833,E,AA,13,0.8,711.2,19.0,,*65

$GPVTG,131.7,T,128.7,M,0.0,N,0.0,K,A*2B

$GPRMC,075834.0,A,3205.971193,N,03512.309833,E,0.0,131.7,310316,3.0,E,A*0E

$GPGSA,A,2,02,03,06,07,09,16,23,30,,,,,1.1,0.8,0.7*30

$GNGSA,A,2,02,03,06,07,09,16,23,30,,,,,1.1,0.8,0.7*2E

$GNGSA,A,2,65,66,72,74,75,,,,,,,,1.1,0.8,0.7*25

$GPGSV,3,1,10,02,12,293,13,03,21,147,17,06,23,248,27,07,70,279,28*7F

$GPGSV,3,2,10,09,61,022,32,16,17,043,15,23,42,071,24,28,02,189,19*73

$GPGSV,3,3,10,30,42,243,24,05,,,*4B

$GLGSV,2,1,06,74,27,028,19,66,13,324,24,75,80,341,20,65,64,357,29*60

$GLGSV,2,2,06,72,49,116,28,71,02,133,*62

$GPGGA,075835.0,3205.971192,N,03512.309834,E,1,08,0.8,711.2,M,19.0,M,,*5C

$GNGNS,075835.0,3205.971192,N,03512.309834,E,AA,13,0.8,711.2,19.0,,*62

$GPVTG,131.7,T,128.7,M,0.0,N,0.0,K,A*2B

$GPRMC,075835.0,A,3205.971192,N,03512.309834,E,0.0,131.7,310316,3.0,E,A*09

$GPGSA,A,2,02,03,06,07,09,16,23,30,,,,,1.1,0.8,0.7*30

$GNGSA,A,2,02,03,06,07,09,16,23,30,,,,,1.1,0.8,0.7*2E

$GNGSA,A,2,65,66,72,74,75,,,,,,,,1.1,0.8,0.7*25

$GPGSV,3,1,10,02,12,293,13,03,21,147,23,06,23,248,30,07,70,279,26*70

$GPGSV,3,2,10,09,61,022,25,16,17,043,18,23,42,071,23,28,02,189,21*74

$GPGSV,3,3,10,30,42,243,29,05,,,*46

$GLGSV,2,1,06,74,27,028,19,66,13,324,22,75,80,341,25,65,64,357,27*6D

$GLGSV,2,2,06,72,49,116,26,71,02,133,*6C

$GPGGA,075836.0,3205.971192,N,03512.309833,E,1,08,0.8,711.2,M,19.0,M,,*58

$GNGNS,075836.0,3205.971192,N,03512.309833,E,AA,13,0.8,711.2,19.0,,*66

$GPVTG,131.7,T,128.7,M,0.0,N,0.0,K,A*2B

$GPRMC,075836.0,A,3205.971192,N,03512.309833,E,0.0,131.7,310316,3.0,E,A*0D

$GPGSA,A,2,02,03,06,07,09,16,23,30,,,,,1.1,0.8,0.7*30

$GNGSA,A,2,02,03,06,07,09,16,23,30,,,,,1.1,0.8,0.7*2E

$GNGSA,A,2,65,66,72,74,75,,,,,,,,1.1,0.8,0.7*25

$GPGSV,3,1,10,02,12,293,16,03,21,147,20,06,23,248,32,07,70,279,21*73

$GPGSV,3,2,10,09,61,022,27,16,17,043,18,23,42,071,26,28,02,189,21*73

$GPGSV,3,3,10,30,42,243,29,05,,,*46

$GLGSV,2,1,06,74,27,028,19,66,13,324,26,75,80,341,20,65,64,357,25*6E

$GLGSV,2,2,06,72,49,116,24,71,02,133,*6E

$GPGGA,075837.0,3205.971189,N,03512.309834,E,1,08,0.8,711.2,M,19.0,M,,*54

$GNGNS,075837.0,3205.971189,N,03512.309834,E,AA,13,0.8,711.2,19.0,,*6A

$GPVTG,131.7,T,128.7,M,0.0,N,0.0,K,A*2B

$GPRMC,075837.0,A,3205.971189,N,03512.309834,E,0.0,131.7,310316,3.0,E,A*01

$GPGSA,A,2,02,03,06,07,09,16,23,30,,,,,1.1,0.8,0.7*30

$GNGSA,A,2,02,03,06,07,09,16,23,30,,,,,1.1,0.8,0.7*2E

$GNGSA,A,2,65,66,72,74,75,,,,,,,,1.1,0.8,0.7*25

$GPGSV,3,1,10,02,12,293,16,03,21,147,20,06,23,248,31,07,70,279,17*75

$GPGSV,3,2,10,09,61,022,31,16,17,043,18,23,42,071,19,28,02,189,18*72

$GPGSV,3,3,10,30,42,243,28,05,,,*47

$GLGSV,2,1,06,74,27,028,19,66,13,324,27,75,80,341,20,65,64,357,27*6D

$GLGSV,2,2,06,72,49,116,26,71,02,133,*6C

$GPGGA,075838.0,3205.971188,N,03512.309834,E,1,08,0.8,711.2,M,19.0,M,,*5A

$GNGNS,075838.0,3205.971188,N,03512.309834,E,AA,13,0.8,711.2,19.0,,*64

$GPVTG,131.7,T,128.7,M,0.0,N,0.0,K,A*2B

$GPRMC,075838.0,A,3205.971188,N,03512.309834,E,0.0,131.7,310316,3.0,E,A*0F

$GPGSA,A,2,02,03,06,07,09,16,23,30,,,,,1.1,0.8,0.7*30

$GNGSA,A,2,02,03,06,07,09,16,23,30,,,,,1.1,0.8,0.7*2E

$GNGSA,A,2,65,66,72,74,75,,,,,,,,1.1,0.8,0.7*25

$GPGSV,3,1,10,02,12,293,17,03,21,147,20,06,23,248,30,07,70,279,21*70

$GPGSV,3,2,10,09,61,022,29,16,17,043,18,23,42,071,20,28,02,189,18*71

$GPGSV,3,3,10,30,42,243,25,05,,,*4A

$GLGSV,2,1,06,74,27,028,19,66,13,324,27,75,80,341,14,65,64,357,25*68

$GLGSV,2,2,06,72,49,116,27,71,02,133,*6D

$GPGGA,075839.0,3205.971185,N,03512.309836,E,1,08,0.8,711.2,M,19.0,M,,*54

$GNGNS,075839.0,3205.971185,N,03512.309836,E,AA,12,0.8,711.2,19.0,,*6B

$GPVTG,131.7,T,128.7,M,0.0,N,0.0,K,A*2B

$GPRMC,075839.0,A,3205.971185,N,03512.309836,E,0.0,131.7,310316,3.0,E,A*01

$GPGSA,A,2,02,03,06,07,09,16,23,30,,,,,1.1,0.8,0.7*30

$GNGSA,A,2,02,03,06,07,09,16,23,30,,,,,1.1,0.8,0.7*2E

$GNGSA,A,2,65,66,72,75,,,,,,,,,1.1,0.8,0.7*26

$GPGSV,3,1,10,02,12,293,17,03,21,147,19,06,23,248,30,07,70,279,21*7A

$GPGSV,3,2,10,09,61,022,31,16,17,043,14,23,42,071,28,28,02,189,18*7C

$GPGSV,3,3,10,30,42,243,25,05,,,*4A

$GLGSV,2,1,06,74,27,028,19,66,13,324,29,75,80,341,17,65,64,357,25*65

$GLGSV,2,2,06,72,49,116,27,71,02,133,*6D

$GPGGA,075840.0,3205.971182,N,03512.309833,E,1,08,0.8,711.2,M,19.0,M,,*58

$GNGNS,075840.0,3205.971182,N,03512.309833,E,AA,12,0.8,711.2,19.0,,*67

$GPVTG,131.7,T,128.7,M,0.0,N,0.0,K,A*2B

$GPRMC,075840.0,A,3205.971182,N,03512.309833,E,0.0,131.7,310316,3.0,E,A*0D

$GPGSA,A,2,02,03,06,07,09,16,23,30,,,,,1.1,0.8,0.7*30

$GNGSA,A,2,02,03,06,07,09,16,23,30,,,,,1.1,0.8,0.7*2E

$GNGSA,A,2,65,66,72,75,,,,,,,,,1.1,0.8,0.7*26

$GPGSV,3,1,10,02,12,293,17,03,21,147,21,06,23,248,27,07,70,279,21*77

$GPGSV,3,2,10,09,61,022,31,16,17,043,17,23,42,071,28,28,02,189,21*75

$GPGSV,3,3,10,30,42,243,27,05,,,*48

$GLGSV,2,1,06,74,27,028,19,66,13,324,22,75,80,341,17,65,64,357,20*6B

$GLGSV,2,2,06,72,49,116,23,71,02,133,*69

$GPGGA,075841.0,3205.971181,N,03512.309832,E,1,08,0.8,711.2,M,19.0,M,,*5B

$GNGNS,075841.0,3205.971181,N,03512.309832,E,AA,12,0.8,711.2,19.0,,*64

$GPVTG,131.7,T,128.7,M,0.0,N,0.0,K,A*2B

$GPRMC,075841.0,A,3205.971181,N,03512.309832,E,0.0,131.7,310316,3.0,E,A*0E

$GPGSA,A,2,02,03,06,07,09,16,23,30,,,,,1.1,0.8,0.7*30

$GNGSA,A,2,02,03,06,07,09,16,23,30,,,,,1.1,0.8,0.7*2E

$GNGSA,A,2,65,66,72,75,,,,,,,,,1.1,0.8,0.7*26

$GPGSV,3,1,10,02,12,293,17,03,21,147,19,06,23,248,27,07,70,279,16*78

$GPGSV,3,2,10,09,61,022,30,16,17,043,20,23,42,071,27,28,02,189,20*7E

$GPGSV,3,3,10,30,42,243,29,05,,,*46

$GLGSV,2,1,06,74,27,028,19,66,13,324,21,75,80,341,18,65,64,357,24*63

$GLGSV,2,2,06,72,49,116,26,71,02,133,*6C

$GPGGA,075842.0,3205.971181,N,03512.309829,E,1,08,0.8,711.2,M,19.0,M,,*52

$GNGNS,075842.0,3205.971181,N,03512.309829,E,AA,12,0.8,711.2,19.0,,*6D

$GPVTG,131.7,T,128.7,M,0.0,N,0.0,K,A*2B

$GPRMC,075842.0,A,3205.971181,N,03512.309829,E,0.0,131.7,310316,3.0,E,A*07

$GPGSA,A,2,02,03,06,07,09,16,23,30,,,,,1.1,0.8,0.7*30

$GNGSA,A,2,02,03,06,07,09,16,23,30,,,,,1.1,0.8,0.7*2E

$GNGSA,A,2,65,66,72,75,,,,,,,,,1.1,0.8,0.7*26

$GPGSV,3,1,10,02,12,293,17,03,21,147,21,06,23,248,28,07,70,279,17*7D

$GPGSV,3,2,10,09,61,022,31,16,17,043,20,23,42,071,28,28,02,189,19*7A

$GPGSV,3,3,10,30,42,243,28,05,,,*47

$GLGSV,2,1,06,74,27,028,19,66,13,324,20,75,80,341,18,65,64,357,22*64

$GLGSV,2,2,06,72,49,116,29,71,02,133,*63

