$GLRMC,082158.577,V,3854.928,N,07702.499,W,57.7,2.51,290316,,E*5F
$GLGGA,082159.577,3854.928,N,07702.499,W,0,00,,,M,,M,,*40
$GLGLL,3854.928,N,07702.499,W,082200.577,V*2F
$GLVTG,2.51,T,,M,57.7,N,106.9,K*71
$GLRMC,082202.577,V,3854.927,N,07702.500,W,20.9,2.42,290316,,E*51
$GLGGA,082203.577,3854.927,N,07702.500,W,0,00,,,M,,M,,*42
$GLGLL,3854.927,N,07702.500,W,082204.577,V*25
$GLVTG,2.42,T,,M,20.9,N,38.7,K*4F
$GLGSA,A,2,04,10,12,13,17,08,,,,,,,0.3,0.1,0.5*22
$GLGSV,2,1,06,04,70,135,64,10,36,104,86,12,10,180,72,13,83,112,20*6E
$GLGSV,2,2,06,17,74,256,60,08,43,065,38*66
$GLRMC,082209.577,V,3854.926,N,07702.501,W,48.9,2.35,290316,,E*54
$GLGGA,082210.577,3854.926,N,07702.501,W,0,04,0.1,,M,,M,,*6B
$GLGLL,3854.926,N,07702.501,W,082211.577,V*21
$GLVTG,2.35,T,,M,48.9,N,90.5,K*41
$GLRMC,082213.577,V,3854.924,N,07702.501,W,79.8,2.27,290316,,E*5D
$GLGGA,082214.577,3854.924,N,07702.501,W,0,04,0.1,,M,,M,,*6D
$GLGLL,3854.924,N,07702.501,W,082215.577,V*27
$GLVTG,2.27,T,,M,79.8,N,147.8,K*77
$GLRMC,082217.577,V,3854.922,N,07702.502,W,67.6,2.19,290316,,E*50
$GLGGA,082218.577,3854.922,N,07702.502,W,0,04,0.1,,M,,M,,*64
$GLGLL,3854.922,N,07702.502,W,082219.577,V*2E
$GLVTG,2.19,T,,M,67.6,N,125.3,K*74
$GLRMC,082221.577,V,3854.920,N,07702.503,W,49.3,2.24,290316,,E*51
$GLGGA,082222.577,3854.920,N,07702.503,W,0,04,0.1,,M,,M,,*6E
$GLGLL,3854.920,N,07702.503,W,082223.577,V*24
$GLVTG,2.24,T,,M,49.3,N,91.4,K*4A
$GLRMC,082225.577,V,3854.919,N,07702.503,W,80.3,2.15,290316,,E*58
$GLGGA,082226.577,3854.919,N,07702.503,W,0,04,0.1,,M,,M,,*60
$GLGLL,3854.919,N,07702.503,W,082227.577,V*2A
$GLVTG,2.15,T,,M,80.3,N,148.7,K*7B
$GLRMC,082229.577,V,3854.917,N,07702.504,W,69.0,2.21,290316,,E*5E
$GLGGA,082230.577,3854.917,N,07702.504,W,0,04,0.1,,M,,M,,*6E
$GLGLL,3854.917,N,07702.504,W,082231.577,V*24
$GLVTG,2.21,T,,M,69.0,N,127.9,K*7F
$GLRMC,082233.577,V,3854.915,N,07702.504,W,29.1,2.19,290316,,E*59
$GLGGA,082234.577,3854.915,N,07702.504,W,0,04,0.1,,M,,M,,*68
$GLGLL,3854.915,N,07702.504,W,082235.577,V*22
$GLVTG,2.19,T,,M,29.1,N,53.9,K*43
$GLRMC,082237.577,V,3854.914,N,07702.505,W,36.5,2.58,290316,,E*52
$GLGGA,082238.577,3854.914,N,07702.505,W,0,04,0.1,,M,,M,,*64
$GLGLL,3854.914,N,07702.505,W,082239.577,V*2E
$GLVTG,2.58,T,,M,36.5,N,67.7,K*45
$GLRMC,082241.577,V,3854.913,N,07702.507,W,69.3,2.66,290316,,E*57
$GLGGA,082242.577,3854.913,N,07702.507,W,0,04,0.1,,M,,M,,*6C
$GLGLL,3854.913,N,07702.507,W,082243.577,V*26
$GLVTG,2.66,T,,M,69.3,N,128.4,K*7D
$GLRMC,082245.577,V,3854.912,N,07702.508,W,41.5,2.17,290316,,E*57
$GLGGA,082246.577,3854.912,N,07702.508,W,0,04,0.1,,M,,M,,*66
$GLGLL,3854.912,N,07702.508,W,082247.577,V*2C
$GLVTG,2.17,T,,M,41.5,N,76.9,K*40
$GLGSA,A,2,04,10,12,13,17,08,,,,,,,0.7,0.1,0.9*2A
$GLGSV,2,1,06,04,15,049,85,10,36,339,49,12,69,066,77,13,15,224,54*6F
$GLGSV,2,2,06,17,43,046,33,08,78,135,84*6C
$GLRMC,082252.577,V,3854.910,N,07702.508,W,85.7,2.10,290316,,E*5E
$GLGGA,082253.577,3854.910,N,07702.508,W,0,04,0.1,,M,,M,,*60
$GLGLL,3854.910,N,07702.508,W,082254.577,V*2C
$GLVTG,2.10,T,,M,85.7,N,158.7,K*7E
$GLRMC,082256.577,V,3854.908,N,07702.508,W,76.6,2.12,290316,,E*5C
$GLGGA,082257.577,3854.908,N,07702.508,W,0,04,0.1,,M,,M,,*6D
$GLGLL,3854.908,N,07702.508,W,082258.577,V*29
$GLVTG,2.12,T,,M,76.6,N,142.0,K*7D
$GLRMC,082300.577,V,3854.906,N,07702.508,W,94.2,2.08,290316,,E*53
$GLGGA,082301.577,3854.906,N,07702.508,W,0,04,0.1,,M,,M,,*61
$GLGLL,3854.906,N,07702.508,W,082302.577,V*29
$GLVTG,2.08,T,,M,94.2,N,174.5,K*7E
$GLRMC,082304.577,V,3854.904,N,07702.509,W,67.8,2.10,290316,,E*5B
$GLGGA,082305.577,3854.904,N,07702.509,W,0,04,0.1,,M,,M,,*66
$GLGLL,3854.904,N,07702.509,W,082306.577,V*2E
$GLVTG,2.10,T,,M,67.8,N,125.6,K*76
$GLRMC,082308.577,V,3854.903,N,07702.509,W,55.5,2.16,290316,,E*5A
$GLGGA,082309.577,3854.903,N,07702.509,W,0,04,0.1,,M,,M,,*6D
$GLGLL,3854.903,N,07702.509,W,082310.577,V*2E
$GLVTG,2.16,T,,M,55.5,N,102.8,K*77
$GLRMC,082312.577,V,3854.901,N,07702.510,W,30.6,2.17,290316,,E*5A
$GLGGA,082313.577,3854.901,N,07702.510,W,0,04,0.1,,M,,M,,*6C
$GLGLL,3854.901,N,07702.510,W,082314.577,V*20
$GLVTG,2.17,T,,M,30.6,N,56.8,K*46
$GLRMC,082316.577,V,3854.899,N,07702.509,W,26.6,1.80,290316,,E*5C
$GLGGA,082317.577,3854.899,N,07702.509,W,0,04,0.1,,M,,M,,*60
$GLGLL,3854.899,N,07702.509,W,082318.577,V*24
$GLVTG,1.80,T,,M,26.6,N,49.2,K*48
$GLGSA,A,2,04,10,12,13,17,08,,,,,,,0.3,0.0,0.8*2E
$GLGSV,2,1,06,04,15,310,33,10,34,131,79,12,41,189,44,13,38,133,81*6E
$GLGSV,2,2,06,17,23,262,68,08,12,206,50*66
$GLRMC,082323.577,V,3854.898,N,07702.509,W,65.5,1.82,290316,,E*5D
$GLGGA,082324.577,3854.898,N,07702.509,W,0,04,0.0,,M,,M,,*60
$GLGLL,3854.898,N,07702.509,W,082325.577,V*2B
$GLVTG,1.82,T,,M,65.5,N,121.3,K*70
$GLRMC,082327.577,V,3854.896,N,07702.508,W,81.7,1.90,290316,,E*5D
$GLGGA,082328.577,3854.896,N,07702.508,W,0,04,0.0,,M,,M,,*63
$GLGLL,3854.896,N,07702.508,W,082329.577,V*28
$GLVTG,1.90,T,,M,81.7,N,151.2,K*7D
$GLRMC,082331.577,V,3854.894,N,07702.508,W,70.7,1.95,290316,,E*53
$GLGGA,082332.577,3854.894,N,07702.508,W,0,04,0.0,,M,,M,,*6A
$GLGLL,3854.894,N,07702.508,W,082333.577,V*21
$GLVTG,1.95,T,,M,70.7,N,130.9,K*7A
$GLRMC,082335.577,V,3854.892,N,07702.508,W,57.6,2.03,290316,,E*59
$GLGGA,082336.577,3854.892,N,07702.508,W,0,04,0.0,,M,,M,,*68
$GLGLL,3854.892,N,07702.508,W,082337.577,V*23
$GLVTG,2.03,T,,M,57.6,N,106.6,K*78
$GLGSA,A,3,04,10,12,13,17,08,,,,,,,0.2,0.2,0.7*23
$GLGSV,2,1,06,04,36,275,83,10,74,204,74,12,53,181,53,13,08,357,30*6E
$GLGSV,2,2,06,17,13,251,29,08,70,173,21*63
$GLRMC,082342.577,V,3854.890,N,07702.508,W,85.6,2.06,290316,,E*51
$GLGGA,082343.577,3854.890,N,07702.508,W,0,04,0.2,,M,,M,,*6A
$GLGLL,3854.890,N,07702.508,W,082344.577,V*25
$GLVTG,2.06,T,,M,85.6,N,158.5,K*7A
$GLRMC,082346.577,V,3854.889,N,07702.509,W,25.4,2.12,290316,,E*51
$GLGGA,082347.577,3854.889,N,07702.509,W,0,04,0.2,,M,,M,,*67
$GLGLL,3854.889,N,07702.509,W,082348.577,V*20
$GLVTG,2.12,T,,M,25.4,N,47.1,K*4C
$GLRMC,082350.577,V,3854.887,N,07702.509,W,15.5,2.15,290316,,E*5D
$GLGGA,082351.577,3854.887,N,07702.509,W,0,04,0.2,,M,,M,,*6E
$GLGLL,3854.887,N,07702.509,W,082352.577,V*25
$GLVTG,2.15,T,,M,15.5,N,28.7,K*46
$GLGSA,A,3,04,10,12,13,17,08,,,,,,,0.3,0.6,0.7*26
$GLGSV,2,1,06,04,22,056,24,10,27,156,77,12,82,179,31,13,38,263,84*61
$GLGSV,2,2,06,17,85,307,37,08,25,219,71*6B
$GLRMC,082357.577,V,3854.885,N,07702.509,W,75.1,2.07,290316,,E*59
$GLGGA,082358.577,3854.885,N,07702.509,W,0,04,0.6,,M,,M,,*61
$GLGLL,3854.885,N,07702.509,W,082359.577,V*2C
$GLVTG,2.07,T,,M,75.1,N,139.2,K*73
$GLRMC,082401.577,V,3854.883,N,07702.509,W,84.2,2.01,290316,,E*50
$GLGGA,082402.577,3854.883,N,07702.509,W,0,04,0.6,,M,,M,,*6F
$GLGLL,3854.883,N,07702.509,W,082403.577,V*22
$GLVTG,2.01,T,,M,84.2,N,156.0,K*73
$GLRMC,082405.577,V,3854.881,N,07702.509,W,13.2,1.92,290316,,E*51
$GLGGA,082406.577,3854.881,N,07702.509,W,0,04,0.6,,M,,M,,*69
$GLGLL,3854.881,N,07702.509,W,082407.577,V*24
$GLVTG,1.92,T,,M,13.2,N,24.5,K*45
$GLGSA,A,3,04,10,12,13,17,08,,,,,,,0.9,0.3,0.0*2E
$GLGSV,2,1,06,04,08,134,79,10,76,023,22,12,73,144,48,13,64,107,28*63
$GLGSV,2,2,06,17,79,267,72,08,21,198,61*61
$GLRMC,082412.577,V,3854.880,N,07702.508,W,21.1,1.46,290316,,E*5C
$GLGGA,082413.577,3854.880,N,07702.508,W,0,04,0.3,,M,,M,,*68
$GLGLL,3854.880,N,07702.508,W,082414.577,V*26
$GLVTG,1.46,T,,M,21.1,N,39.0,K*47
$GLRMC,082416.577,V,3854.879,N,07702.507,W,92.2,1.55,290316,,E*58
$GLGGA,082417.577,3854.879,N,07702.507,W,0,04,0.3,,M,,M,,*65
$GLGLL,3854.879,N,07702.507,W,082418.577,V*23
$GLVTG,1.55,T,,M,92.2,N,170.8,K*7A
$GLRMC,082420.577,V,3854.878,N,07702.505,W,74.8,1.46,290316,,E*5E
$GLGGA,082421.577,3854.878,N,07702.505,W,0,04,0.3,,M,,M,,*63
$GLGLL,3854.878,N,07702.505,W,082422.577,V*29
$GLVTG,1.46,T,,M,74.8,N,138.5,K*7B
$GLRMC,082424.577,V,3854.877,N,07702.504,W,0.8,1.41,290316,,E*60
$GLGGA,082425.577,3854.877,N,07702.504,W,0,04,0.3,,M,,M,,*69
$GLGLL,3854.877,N,07702.504,W,082426.577,V*23
$GLVTG,1.41,T,,M,0.8,N,1.5,K*44
$GLGSA,A,2,04,10,12,13,17,08,,,,,,,0.9,0.0,0.5*29
$GLGSV,2,1,06,04,35,320,15,10,73,131,15,12,07,320,46,13,36,099,49*68
$GLGSV,2,2,06,17,17,049,81,08,11,221,32*6F
$GLRMC,082431.577,V,3854.876,N,07702.502,W,24.8,1.37,290316,,E*54
$GLGGA,082432.577,3854.876,N,07702.502,W,0,04,0.0,,M,,M,,*6B
$GLGLL,3854.876,N,07702.502,W,082433.577,V*20
$GLVTG,1.37,T,,M,24.8,N,45.9,K*4F
$GLRMC,082435.577,V,3854.875,N,07702.501,W,5.5,1.40,290316,,E*6E
$GLGGA,082436.577,3854.875,N,07702.501,W,0,04,0.0,,M,,M,,*6F
$GLGLL,3854.875,N,07702.501,W,082437.577,V*24
$GLVTG,1.40,T,,M,5.5,N,10.1,K*79
$GLGSA,A,2,04,10,12,13,17,08,,,,,,,0.1,0.6,0.3*21
$GLGSV,2,1,06,04,38,109,40,10,89,169,32,12,62,167,71,13,06,001,84*64
$GLGSV,2,2,06,17,32,109,68,08,23,050,87*61
$GLRMC,082442.577,V,3854.874,N,07702.499,W,58.6,1.33,290316,,E*50
$GLGGA,082443.577,3854.874,N,07702.499,W,0,04,0.6,,M,,M,,*6A
$GLGLL,3854.874,N,07702.499,W,082444.577,V*21
$GLVTG,1.33,T,,M,58.6,N,108.5,K*7A
$GLRMC,082446.577,V,3854.873,N,07702.498,W,98.4,1.39,290316,,E*56
$GLGGA,082447.577,3854.873,N,07702.498,W,0,04,0.6,,M,,M,,*68
$GLGLL,3854.873,N,07702.498,W,082448.577,V*2B
$GLVTG,1.39,T,,M,98.4,N,182.3,K*7A
$GLRMC,082450.577,V,3854.872,N,07702.496,W,59.7,1.32,290316,,E*5B
$GLGGA,082451.577,3854.872,N,07702.496,W,0,04,0.6,,M,,M,,*60
$GLGLL,3854.872,N,07702.496,W,082452.577,V*2F
$GLVTG,1.32,T,,M,59.7,N,110.5,K*72
$GLRMC,082454.577,V,3854.871,N,07702.495,W,20.8,1.43,290316,,E*58
$GLGGA,082455.577,3854.871,N,07702.495,W,0,04,0.6,,M,,M,,*64
$GLGLL,3854.871,N,07702.495,W,082456.577,V*2B
$GLVTG,1.43,T,,M,20.8,N,38.4,K*4F
$GLRMC,082458.577,V,3854.869,N,07702.494,W,37.4,1.87,290316,,E*5E
$GLGGA,082459.577,3854.869,N,07702.494,W,0,04,0.6,,M,,M,,*60
$GLGLL,3854.869,N,07702.494,W,082500.577,V*21
$GLVTG,1.87,T,,M,37.4,N,69.3,K*4E
$GLRMC,082502.577,V,3854.867,N,07702.494,W,46.4,1.96,290316,,E*58
$GLGGA,082503.577,3854.867,N,07702.494,W,0,04,0.6,,M,,M,,*60
$GLGLL,3854.867,N,07702.494,W,082504.577,V*2B
$GLVTG,1.96,T,,M,46.4,N,85.9,K*40
$GLRMC,082506.577,V,3854.865,N,07702.494,W,42.7,2.02,290316,,E*57
$GLGGA,082507.577,3854.865,N,07702.494,W,0,04,0.6,,M,,M,,*66
$GLGLL,3854.865,N,07702.494,W,082508.577,V*25
$GLVTG,2.02,T,,M,42.7,N,79.0,K*43
$GLRMC,082510.577,V,3854.864,N,07702.494,W,24.4,1.93,290316,,E*59
$GLGGA,082511.577,3854.864,N,07702.494,W,0,04,0.6,,M,,M,,*60
$GLGLL,3854.864,N,07702.494,W,082512.577,V*2F
$GLVTG,1.93,T,,M,24.4,N,45.3,K*47
$GLRMC,082514.577,V,3854.862,N,07702.494,W,8.5,1.89,290316,,E*6F
$GLGGA,082515.577,3854.862,N,07702.494,W,0,04,0.6,,M,,M,,*62
$GLGLL,3854.862,N,07702.494,W,082516.577,V*2D
$GLVTG,1.89,T,,M,8.5,N,15.7,K*72
$GLRMC,082518.577,V,3854.860,N,07702.494,W,26.4,1.98,290316,,E*5C
$GLGGA,082519.577,3854.860,N,07702.494,W,0,04,0.6,,M,,M,,*6C
$GLGLL,3854.860,N,07702.494,W,082520.577,V*2A
$GLVTG,1.98,T,,M,26.4,N,48.9,K*49
$GLGSA,A,2,04,10,12,13,17,08,,,,,,,0.5,0.3,0.5*26
$GLGSV,2,1,06,04,65,047,34,10,86,261,81,12,61,017,20,13,43,153,67*63
$GLGSV,2,2,06,17,08,105,25,08,76,091,73*6B
$GLRMC,082525.577,V,3854.858,N,07702.494,W,13.0,2.00,290316,,E*59
$GLGGA,082526.577,3854.858,N,07702.494,W,0,04,0.3,,M,,M,,*6E
$GLGLL,3854.858,N,07702.494,W,082527.577,V*26
$GLVTG,2.00,T,,M,13.0,N,24.1,K*4B
$GLRMC,082529.577,V,3854.856,N,07702.494,W,80.6,1.95,290316,,E*58
$GLGGA,082530.577,3854.856,N,07702.494,W,0,04,0.3,,M,,M,,*67
$GLGLL,3854.856,N,07702.494,W,082531.577,V*2F
$GLVTG,1.95,T,,M,80.6,N,149.4,K*77
$GLRMC,082533.577,V,3854.855,N,07702.494,W,47.2,1.98,290316,,E*52
$GLGGA,082534.577,3854.855,N,07702.494,W,0,04,0.3,,M,,M,,*60
$GLGLL,3854.855,N,07702.494,W,082535.577,V*28
$GLVTG,1.98,T,,M,47.2,N,87.5,K*47
$GLRMC,082537.577,V,3854.853,N,07702.494,W,76.7,2.05,290316,,E*50
$GLGGA,082538.577,3854.853,N,07702.494,W,0,04,0.3,,M,,M,,*6A
$GLGLL,3854.853,N,07702.494,W,082539.577,V*22
$GLVTG,2.05,T,,M,76.7,N,142.1,K*7B
$GLRMC,082541.577,V,3854.851,N,07702.494,W,0.9,1.96,290316,,E*65
$GLGGA,082542.577,3854.851,N,07702.494,W,0,04,0.3,,M,,M,,*65
$GLGLL,3854.851,N,07702.494,W,082543.577,V*2D
$GLVTG,1.96,T,,M,0.9,N,1.6,K*4C