$GPRMC,081543.926,V,3854.931,N,07702.496,W,84.3,0.50,290316,,E*48
$GPGGA,081544.926,3854.931,N,07702.496,W,0,00,,,M,,M,,*58
$GPGLL,3854.931,N,07702.496,W,081545.926,V*39
$GPVTG,0.50,T,,M,84.3,N,156.1,K*69
$GPRMC,081547.926,V,3854.933,N,07702.496,W,20.3,0.10,290316,,E*44
$GPGGA,081548.926,3854.933,N,07702.496,W,0,00,,,M,,M,,*56
$GPGLL,3854.933,N,07702.496,W,081549.926,V*37
$GPVTG,0.10,T,,M,20.3,N,37.5,K*51
$GPRMC,081551.926,V,3854.935,N,07702.495,W,67.9,0.11,290316,,E*4E
$GPGGA,081552.926,3854.935,N,07702.495,W,0,00,,,M,,M,,*58
$GPGLL,3854.935,N,07702.495,W,081553.926,V*39
$GPVTG,0.11,T,,M,67.9,N,125.7,K*69
$GPRMC,081555.926,V,3854.936,N,07702.495,W,37.7,0.21,290316,,E*41
$GPGGA,081556.926,3854.936,N,07702.495,W,0,00,,,M,,M,,*5F
$GPGLL,3854.936,N,07702.495,W,081557.926,V*3E
$GPVTG,0.21,T,,M,37.7,N,69.9,K*56
$GPRMC,081559.926,V,3854.938,N,07702.494,W,72.2,0.32,290316,,E*44
$GPGGA,081600.926,3854.938,N,07702.494,W,0,00,,,M,,M,,*50
$GPGLL,3854.938,N,07702.494,W,081601.926,V*31
$GPVTG,0.32,T,,M,72.2,N,133.7,K*60
$GPRMC,081603.926,V,3854.939,N,07702.493,W,76.5,0.31,290316,,E*4E
$GPGGA,081604.926,3854.939,N,07702.493,W,0,00,,,M,,M,,*52
$GPGLL,3854.939,N,07702.493,W,081605.926,V*33
$GPVTG,0.31,T,,M,76.5,N,141.7,K*65
$GPGSA,A,3,14,16,14,05,16,09,,,,,,,0.1,0.7,0.8*30
$GPGSV,2,1,06,14,79,126,59,16,25,222,27,14,83,333,45,05,61,131,32*75
$GPGSV,2,2,06,16,11,001,50,09,86,311,44*78
$GPRMC,081610.926,V,3854.941,N,07702.492,W,73.6,0.24,290316,,E*40
$GPGGA,081611.926,3854.941,N,07702.492,W,0,04,0.7,,M,,M,,*75
$GPGLL,3854.941,N,07702.492,W,081612.926,V*3B
$GPVTG,0.24,T,,M,73.6,N,136.4,K*64
$GPRMC,081614.926,V,3854.942,N,07702.491,W,11.9,0.71,290316,,E*4F
$GPGGA,081615.926,3854.942,N,07702.491,W,0,04,0.7,,M,,M,,*71
$GPGLL,3854.942,N,07702.491,W,081616.926,V*3F
$GPVTG,0.71,T,,M,11.9,N,22.1,K*5E
$GPRMC,081618.926,V,3854.943,N,07702.490,W,30.6,0.40,290316,,E*4D
$GPGGA,081619.926,3854.943,N,07702.490,W,0,04,0.7,,M,,M,,*7D
$GPGLL,3854.943,N,07702.490,W,081620.926,V*3A
$GPVTG,0.40,T,,M,30.6,N,56.7,K*55
$GPRMC,081622.926,V,3854.945,N,07702.489,W,96.6,0.34,290316,,E*45
$GPGGA,081623.926,3854.945,N,07702.489,W,0,04,0.7,,M,,M,,*7A
$GPGLL,3854.945,N,07702.489,W,081624.926,V*30
$GPVTG,0.34,T,,M,96.6,N,178.9,K*69
$GPGSA,A,3,14,16,14,05,16,09,,,,,,,0.3,0.9,0.9*3D
$GPGSV,2,1,06,14,70,287,39,16,59,324,71,14,79,329,23,05,59,256,89*7A
$GPGSV,2,2,06,16,53,205,62,09,56,252,73*76
$GPRMC,081629.926,V,3854.947,N,07702.488,W,83.6,0.24,290316,,E*48
$GPGGA,081630.926,3854.947,N,07702.488,W,0,04,0.9,,M,,M,,*75
$GPGLL,3854.947,N,07702.488,W,081631.926,V*37
$GPVTG,0.24,T,,M,83.6,N,154.8,K*63
$GPRMC,081633.926,V,3854.948,N,07702.487,W,57.0,0.33,290316,,E*4A
$GPGGA,081634.926,3854.948,N,07702.487,W,0,04,0.9,,M,,M,,*71
$GPGLL,3854.948,N,07702.487,W,081635.926,V*33
$GPVTG,0.33,T,,M,57.0,N,105.5,K*63
$GPRMC,081637.926,V,3854.950,N,07702.486,W,13.6,0.40,290316,,E*44
$GPGGA,081638.926,3854.950,N,07702.486,W,0,04,0.9,,M,,M,,*75
$GPGLL,3854.950,N,07702.486,W,081639.926,V*37
$GPVTG,0.40,T,,M,13.6,N,25.1,K*56
$GPRMC,081641.926,V,3854.951,N,07702.485,W,87.5,0.35,290316,,E*4B
$GPGGA,081642.926,3854.951,N,07702.485,W,0,04,0.9,,M,,M,,*7A
$GPGLL,3854.951,N,07702.485,W,081643.926,V*38
$GPVTG,0.35,T,,M,87.5,N,162.1,K*68
$GPRMC,081645.926,V,3854.952,N,07702.484,W,38.8,0.48,290316,,E*4E
$GPGGA,081646.926,3854.952,N,07702.484,W,0,04,0.9,,M,,M,,*7C
$GPGLL,3854.952,N,07702.484,W,081647.926,V*3E
$GPVTG,0.48,T,,M,38.8,N,71.9,K*50
$GPRMC,081649.926,V,3854.954,N,07702.483,W,81.6,0.42,290316,,E*45
$GPGGA,081650.926,3854.954,N,07702.483,W,0,04,0.9,,M,,M,,*7A
$GPGLL,3854.954,N,07702.483,W,081651.926,V*38
$GPVTG,0.42,T,,M,81.6,N,151.1,K*6D
$GPRMC,081653.926,V,3854.955,N,07702.482,W,18.1,0.42,290316,,E*49
$GPGGA,081654.926,3854.955,N,07702.482,W,0,04,0.9,,M,,M,,*7E
$GPGLL,3854.955,N,07702.482,W,081655.926,V*3C
$GPVTG,0.42,T,,M,18.1,N,33.5,K*5B
$GPRMC,081657.926,V,3854.957,N,07702.481,W,48.8,0.45,290316,,E*47
$GPGGA,081658.926,3854.957,N,07702.481,W,0,04,0.9,,M,,M,,*73
$GPGLL,3854.957,N,07702.481,W,081659.926,V*31
$GPVTG,0.45,T,,M,48.8,N,90.4,K*58
$GPRMC,081701.926,V,3854.958,N,07702.479,W,63.4,0.45,290316,,E*48
$GPGGA,081702.926,3854.958,N,07702.479,W,0,04,0.9,,M,,M,,*75
$GPGLL,3854.958,N,07702.479,W,081703.926,V*37
$GPVTG,0.45,T,,M,63.4,N,117.3,K*64
$GPRMC,081705.926,V,3854.959,N,07702.478,W,27.0,0.48,290316,,E*45
$GPGGA,081706.926,3854.959,N,07702.478,W,0,04,0.9,,M,,M,,*71
$GPGLL,3854.959,N,07702.478,W,081707.926,V*33
$GPVTG,0.48,T,,M,27.0,N,50.1,K*5D
$GPGSA,A,3,14,16,14,05,16,09,,,,,,,0.7,0.6,0.7*38
$GPGSV,2,1,06,14,38,036,27,16,71,086,73,14,26,083,85,05,27,173,63*7E
$GPGSV,2,2,06,16,05,056,30,09,24,332,66*70
$GPRMC,081712.926,V,3854.961,N,07702.477,W,97.7,0.45,290316,,E*46
$GPGGA,081713.926,3854.961,N,07702.477,W,0,04,0.6,,M,,M,,*7E
$GPGLL,3854.961,N,07702.477,W,081714.926,V*35
$GPVTG,0.45,T,,M,97.7,N,180.9,K*68
$GPRMC,081716.926,V,3854.962,N,07702.476,W,72.4,0.52,290316,,E*4E
$GPGGA,081717.926,3854.962,N,07702.476,W,0,04,0.6,,M,,M,,*78
$GPGLL,3854.962,N,07702.476,W,081718.926,V*3B
$GPVTG,0.52,T,,M,72.4,N,134.1,K*61
$GPRMC,081720.926,V,3854.963,N,07702.474,W,66.1,0.54,290316,,E*4E
$GPGGA,081721.926,3854.963,N,07702.474,W,0,04,0.6,,M,,M,,*7E
$GPGLL,3854.963,N,07702.474,W,081722.926,V*31
$GPVTG,0.54,T,,M,66.1,N,122.5,K*64
$GPRMC,081724.926,V,3854.964,N,07702.473,W,20.8,0.56,290316,,E*43
$GPGGA,081725.926,3854.964,N,07702.473,W,0,04,0.6,,M,,M,,*7A
$GPGLL,3854.964,N,07702.473,W,081726.926,V*35
$GPVTG,0.56,T,,M,20.8,N,38.5,K*57
$GPRMC,081728.926,V,3854.965,N,07702.472,W,82.0,0.62,290316,,E*48
$GPGGA,081729.926,3854.965,N,07702.472,W,0,04,0.6,,M,,M,,*76
$GPGLL,3854.965,N,07702.472,W,081730.926,V*32
$GPVTG,0.62,T,,M,82.0,N,151.8,K*63
$GPRMC,081732.926,V,3854.966,N,07702.470,W,17.0,0.64,290316,,E*48
$GPGGA,081733.926,3854.966,N,07702.470,W,0,04,0.6,,M,,M,,*7C
$GPGLL,3854.966,N,07702.470,W,081734.926,V*37
$GPVTG,0.64,T,,M,17.0,N,31.6,K*50
$GPGSA,A,2,14,16,14,05,16,09,,,,,,,0.3,0.1,0.5*38
$GPGSV,2,1,06,14,12,215,34,16,39,094,50,14,51,286,57,05,87,316,72*7A
$GPGSV,2,2,06,16,07,318,60,09,21,256,33*78
$GPRMC,081739.926,V,3854.968,N,07702.469,W,39.0,0.26,290316,,E*4F
$GPGGA,081740.926,3854.968,N,07702.469,W,0,04,0.1,,M,,M,,*79
$GPGLL,3854.968,N,07702.469,W,081741.926,V*33
$GPVTG,0.26,T,,M,39.0,N,72.2,K*59
$GPRMC,081743.926,V,3854.970,N,07702.469,W,69.8,0.22,290316,,E*42
$GPGGA,081744.926,3854.970,N,07702.469,W,0,04,0.1,,M,,M,,*74
$GPGLL,3854.970,N,07702.469,W,081745.926,V*3E
$GPVTG,0.22,T,,M,69.8,N,129.3,K*6E
$GPRMC,081747.926,V,3854.971,N,07702.468,W,6.4,0.26,290316,,E*77
$GPGGA,081748.926,3854.971,N,07702.468,W,0,04,0.1,,M,,M,,*78
$GPGLL,3854.971,N,07702.468,W,081749.926,V*32
$GPVTG,0.26,T,,M,6.4,N,11.8,K*6E
$GPRMC,081751.926,V,3854.973,N,07702.467,W,91.7,0.18,290316,,E*4D
$GPGGA,081752.926,3854.973,N,07702.467,W,0,04,0.1,,M,,M,,*7E
$GPGLL,3854.973,N,07702.467,W,081753.926,V*34
$GPVTG,0.18,T,,M,91.7,N,169.9,K*61
$GPRMC,081755.926,V,3854.975,N,07702.467,W,30.8,0.10,290316,,E*43
$GPGGA,081756.926,3854.975,N,07702.467,W,0,04,0.1,,M,,M,,*7C
$GPGLL,3854.975,N,07702.467,W,081757.926,V*36
$GPVTG,0.10,T,,M,30.8,N,57.0,K*58
$GPRMC,081759.926,V,3854.976,N,07702.467,W,31.5,0.00,290316,,E*41
$GPGGA,081800.926,3854.976,N,07702.467,W,0,04,0.1,,M,,M,,*73
$GPGLL,3854.976,N,07702.467,W,081801.926,V*39
$GPVTG,0.00,T,,M,31.5,N,58.4,K*5E
$GPRMC,081803.926,V,3854.978,N,07702.467,W,12.5,-0.10,290316,,E*62
$GPGGA,081804.926,3854.978,N,07702.467,W,0,04,0.1,,M,,M,,*79
$GPGLL,3854.978,N,07702.467,W,081805.926,V*33
$GPVTG,-0.10,T,,M,12.5,N,23.1,K*7A
$GPRMC,081807.926,V,3854.980,N,07702.468,W,88.2,-0.06,290316,,E*6D
$GPGGA,081808.926,3854.980,N,07702.468,W,0,04,0.1,,M,,M,,*7D
$GPGLL,3854.980,N,07702.468,W,081809.926,V*37
$GPVTG,-0.06,T,,M,88.2,N,163.4,K*49
$GPRMC,081811.926,V,3854.982,N,07702.468,W,15.4,-0.14,290316,,E*69
$GPGGA,081812.926,3854.982,N,07702.468,W,0,04,0.1,,M,,M,,*74
$GPGLL,3854.982,N,07702.468,W,081813.926,V*3E
$GPVTG,-0.14,T,,M,15.4,N,28.6,K*74
$GPRMC,081815.926,V,3854.984,N,07702.468,W,86.4,-0.05,290316,,E*61
$GPGGA,081816.926,3854.984,N,07702.468,W,0,04,0.1,,M,,M,,*76
$GPGLL,3854.984,N,07702.468,W,081817.926,V*3C
$GPVTG,-0.05,T,,M,86.4,N,160.0,K*45
$GPRMC,081819.926,V,3854.985,N,07702.468,W,42.1,-0.08,290316,,E*6C
$GPGGA,081820.926,3854.985,N,07702.468,W,0,04,0.1,,M,,M,,*72
$GPGLL,3854.985,N,07702.468,W,081821.926,V*38
$GPVTG,-0.08,T,,M,42.1,N,77.9,K*7B
$GPRMC,081823.926,V,3854.987,N,07702.469,W,31.4,-0.14,290316,,E*6A
$GPGGA,081824.926,3854.987,N,07702.469,W,0,04,0.1,,M,,M,,*75
$GPGLL,3854.987,N,07702.469,W,081825.926,V*3F
$GPVTG,-0.14,T,,M,31.4,N,58.2,K*71
$GPRMC,081827.926,V,3854.989,N,07702.469,W,0.5,-0.14,290316,,E*53
$GPGGA,081828.926,3854.989,N,07702.469,W,0,04,0.1,,M,,M,,*77
$GPGLL,3854.989,N,07702.469,W,081829.926,V*3D
$GPVTG,-0.14,T,,M,0.5,N,1.0,K*7C
$GPRMC,081831.926,V,3854.991,N,07702.470,W,25.6,-0.18,290316,,E*6D
$GPGGA,081832.926,3854.991,N,07702.470,W,0,04,0.1,,M,,M,,*7D
$GPGLL,3854.991,N,07702.470,W,081833.926,V*37
$GPVTG,-0.18,T,,M,25.6,N,47.4,K*72
$GPRMC,081835.926,V,3854.992,N,07702.470,W,84.8,-0.07,290316,,E*61
$GPGGA,081836.926,3854.992,N,07702.470,W,0,04,0.1,,M,,M,,*7A
$GPGLL,3854.992,N,07702.470,W,081837.926,V*30
$GPVTG,-0.07,T,,M,84.8,N,157.0,K*4D
$GPRMC,081839.926,V,3854.994,N,07702.470,W,43.5,-0.07,290316,,E*6D
$GPGGA,081840.926,3854.994,N,07702.470,W,0,04,0.1,,M,,M,,*7D
$GPGLL,3854.994,N,07702.470,W,081841.926,V*37
$GPVTG,-0.07,T,,M,43.5,N,80.5,K*75
$GPGSA,A,2,14,16,14,05,16,09,,,,,,,1.0,0.1,0.7*38
$GPGSV,2,1,06,14,67,149,32,16,82,357,73,14,09,277,59,05,25,092,50*73
$GPGSV,2,2,06,16,69,031,80,09,59,268,48*78
$GPRMC,081846.926,V,3854.996,N,07702.470,W,41.1,-0.13,290316,,E*64
$GPGGA,081847.926,3854.996,N,07702.470,W,0,04,0.1,,M,,M,,*78
$GPGLL,3854.996,N,07702.470,W,081848.926,V*3C
$GPVTG,-0.13,T,,M,41.1,N,76.1,K*7B
$GPRMC,081850.926,V,3854.998,N,07702.471,W,77.0,-0.04,290316,,E*6E
$GPGGA,081851.926,3854.998,N,07702.471,W,0,04,0.1,,M,,M,,*70
$GPGLL,3854.998,N,07702.471,W,081852.926,V*38
$GPVTG,-0.04,T,,M,77.0,N,142.6,K*48
$GPRMC,081854.926,V,3855.000,N,07702.471,W,25.5,-0.12,290316,,E*66
$GPGGA,081855.926,3855.000,N,07702.471,W,0,04,0.1,,M,,M,,*7D
$GPGLL,3855.000,N,07702.471,W,081856.926,V*35
$GPVTG,-0.12,T,,M,25.5,N,47.3,K*7C
$GPGSA,A,2,14,16,14,05,16,09,,,,,,,0.8,0.5,0.1*33
$GPGSV,2,1,06,14,83,170,63,16,25,153,63,14,05,101,89,05,86,017,21*7C
$GPGSV,2,2,06,16,22,284,67,09,76,082,40*71
$GPRMC,081901.926,V,3855.001,N,07702.471,W,89.9,-0.12,290316,,E*6C
$GPGGA,081902.926,3855.001,N,07702.471,W,0,04,0.5,,M,,M,,*7B
$GPGLL,3855.001,N,07702.471,W,081903.926,V*35
$GPVTG,-0.12,T,,M,89.9,N,166.5,K*42
$GPRMC,081905.926,V,3855.003,N,07702.471,W,0.3,-0.07,290316,,E*55
$GPGGA,081906.926,3855.003,N,07702.471,W,0,04,0.5,,M,,M,,*7D
$GPGLL,3855.003,N,07702.471,W,081907.926,V*33
$GPVTG,-0.07,T,,M,0.3,N,0.5,K*7C
$GPRMC,081909.926,V,3855.005,N,07702.472,W,39.4,-0.10,290316,,E*67
$GPGGA,081910.926,3855.005,N,07702.472,W,0,04,0.5,,M,,M,,*7F
$GPGLL,3855.005,N,07702.472,W,081911.926,V*31
$GPVTG,-0.10,T,,M,39.4,N,72.9,K*7E
$GPRMC,081913.926,V,3855.007,N,07702.472,W,42.6,-0.11,290316,,E*61
$GPGGA,081914.926,3855.007,N,07702.472,W,0,04,0.5,,M,,M,,*79
$GPGLL,3855.007,N,07702.472,W,081915.926,V*37
$GPVTG,-0.11,T,,M,42.6,N,78.9,K*7B
$GPRMC,081917.926,V,3855.008,N,07702.472,W,38.0,-0.05,290316,,E*64
$GPGGA,081918.926,3855.008,N,07702.472,W,0,04,0.5,,M,,M,,*7A
$GPGLL,3855.008,N,07702.472,W,081919.926,V*34
$GPVTG,-0.05,T,,M,38.0,N,70.4,K*70